RollGyr,turnRate,TWa,EGPS0,Z3,TW,H1,W3,WValid,E2,GPSTrueCourse,C3,Z2,headingValid,A3,needsInitialization,W2a,EGyr1,staticMode,E3,PitchGPS,GPSVerticalAccuracy,T,W1,GPSAltitudeMSL,SmoothW2,D3,Ta,D1,gLoad,GPSFixQuality,M2,EGPS1,M1,slipSkid,B1,PitchGyr,A1,H2,D2,EGPS3,E0,EGyr2,EGPS2,HeadingGyr,Z1,EGyr0,M3,GroundSpeed,EGyr3,B3,HeadingGPS,Pitch,GPSNACp,Heading,E1,C1,BaroPressureAltitude,H3,C2,A2,W2,GPSHorizontalAccuracy,BaroVerticalSpeed,SmoothW1,B2,RollGPS,Roll,W1a,headingMag,W3a,SmoothGroundSpeed
0.000000,-0.001003,-6795364573.061345,0.707107,0.000000,-6795364573.061345,0.000000,0.021472,1.000000,0.000000,0.000000,-1.121714,0.000000,0.000000,-1.122105,0.000000,0.587000,0.000000,0.000000,0.707107,0.000000,18.150002,-6795364573.051345,0.000000,390.419952,0.011740,0.342265,-6795364573.051345,-0.784478,1.000450,1.000000,0.000000,0.000000,0.000000,-0.002912,-0.768388,0.000000,0.006668,0.000000,0.644398,0.707107,0.707107,0.000000,0.000000,0.000000,0.000000,0.707107,0.000000,0.587000,0.707107,0.398606,0.000000,0.000000,9.000000,0.000000,0.000000,0.009053,446.292480,0.000000,0.045944,0.049234,0.587000,11.799999,2.174464,0.000000,0.613083,0.000000,0.000000,0.000000,3.141593,0.021472,0.011740
0.000124,-0.001003,-6795364573.061345,0.707105,-0.700280,-6795364573.061345,0.003093,0.027955,1.000000,-0.000008,0.000000,-1.121714,-0.002170,0.000000,-1.122044,0.000000,0.587000,0.000013,1.000000,0.707091,0.105451,18.150002,-6795364573.011345,0.000000,390.419952,0.011740,0.342265,-6795364573.051345,-0.784478,1.000445,1.000000,0.000000,0.001417,0.000000,-0.002931,-0.789666,0.001913,0.006104,-0.047828,0.644398,0.707107,0.707123,-0.000011,0.000116,0.002675,-0.001841,0.707123,0.000000,0.587000,0.707090,0.434889,359.999951,0.003984,9.000000,0.002618,0.000041,0.009053,446.351898,-0.066877,0.045944,0.049440,0.587000,11.799999,2.830923,0.000000,0.572222,0.124262,0.002607,0.000000,3.141593,0.021472,0.011740
0.002238,-0.000902,-6795364573.061345,0.707105,-0.911887,-6795364572.961345,-0.007368,0.027955,1.000000,-0.000021,0.000000,-1.121714,-0.001819,0.000000,-1.124546,0.000000,0.587000,0.000048,1.000000,0.707072,0.121828,18.150002,-6795364572.961345,0.000000,389.763794,0.018265,0.342265,-6795364573.011345,-0.784478,1.000658,1.000000,0.000000,0.001475,0.000000,-0.002804,-0.773136,0.005535,0.006673,-0.031033,0.644398,0.707107,0.707142,-0.000020,-0.000028,0.005828,-0.002051,0.707143,0.000000,0.338000,0.707071,0.404370,359.999986,0.007861,9.000000,0.005709,0.000077,0.009053,446.351898,-0.064191,0.045944,0.047934,0.338000,11.799999,2.830923,0.000000,0.618000,0.117271,0.004539,0.000000,3.141593,0.027955,0.018265
0.004191,-0.000902,-6795364572.961345,0.707105,-0.974503,-6795364572.961345,-0.006971,0.027406,1.000000,-0.000027,0.000000,-1.121714,-0.002765,0.000000,-1.123081,0.000000,0.338000,0.000086,1.000000,0.707052,0.097139,18.150002,-6795364572.911345,0.000000,389.763794,0.018265,0.342265,-6795364572.961345,-0.784478,1.000726,1.000000,0.000000,0.001519,0.000000,-0.002841,-0.778222,0.009689,0.007691,-0.036557,0.644398,0.707107,0.707161,-0.000034,0.000320,0.009035,-0.001472,0.707163,0.000000,0.338000,0.707051,0.408185,359.999999,0.011437,9.000000,0.008852,0.000114,0.009053,446.351898,-0.066519,0.045944,0.049562,0.338000,11.799999,2.775414,0.000000,0.602741,0.148972,0.007087,0.000000,3.141593,0.027955,0.018265
0.007094,-0.000812,-6795364572.961345,0.707105,-0.992147,-6795364572.861345,0.000125,0.027406,1.000000,-0.000022,0.000000,-1.121714,-0.003197,0.000000,-1.121250,0.000000,0.338000,0.000119,1.000000,0.707028,0.103832,18.150002,-6795364572.861345,0.000000,388.123383,0.022080,0.342265,-6795364572.911345,-0.784478,1.000625,1.000000,0.000000,0.001714,0.000000,-0.002895,-0.788395,0.012242,0.006795,-0.016105,0.644398,0.707107,0.707186,-0.000032,0.000432,0.013106,-0.001848,0.707188,0.000000,0.209000,0.707026,0.434889,359.999999,0.014074,9.000000,0.012841,0.000151,0.009053,446.351898,-0.085077,0.045944,0.049725,0.209000,11.799999,2.775414,0.000000,0.633259,0.173920,0.010431,0.000000,3.141593,0.027406,0.022080
0.010338,-0.000812,-6795364572.861345,0.707104,-0.996772,-6795364572.861345,-0.001864,0.034651,1.000000,-0.000025,0.000000,-1.121714,-0.003709,0.000000,-1.120151,0.000000,0.209000,0.000166,1.000000,0.707014,0.102662,18.150002,-6795364572.811345,0.000000,388.123383,0.022080,0.342265,-6795364572.861345,-0.784478,1.000438,1.000000,0.000000,0.001876,0.000000,-0.002999,-0.782037,0.016527,0.007080,-0.049071,0.644398,0.707107,0.707199,-0.000038,0.000609,0.015314,-0.001777,0.707201,0.000000,0.209000,0.707012,0.373852,360.000000,0.018249,9.000000,0.015005,0.000200,0.009053,446.418884,-0.049450,0.045944,0.050295,0.209000,11.799999,3.509067,0.000000,0.579852,0.201427,0.014160,0.000000,3.141593,0.027406,0.022080
0.012385,-0.000731,-6795364572.861345,0.707104,-0.999640,-6795364572.761345,-0.035522,0.034651,1.000000,-0.000047,0.000000,-1.121714,-0.003040,0.000000,-1.122593,0.000000,0.209000,0.000205,1.000000,0.707000,0.146528,18.150002,-6795364572.761345,0.000000,386.811035,0.023258,0.342265,-6795364572.811345,-0.784478,1.000481,1.000000,0.000000,0.002030,0.000000,-0.002974,-0.734987,0.020808,0.005290,-0.051191,0.644398,0.707107,0.707214,-0.000052,0.000221,0.017716,-0.002884,0.707216,0.000000,0.081000,0.706997,0.396741,0.000003,0.023322,9.000000,0.017358,0.000241,0.009053,446.418884,-0.054213,0.045944,0.049074,0.081000,11.799999,3.509067,0.000000,0.590025,0.182408,0.015786,0.000000,3.141593,0.034651,0.023258
0.014485,-0.000731,-6795364572.761345,0.707104,-1.000002,-6795364572.761345,-0.026052,0.036105,1.000000,-0.000064,0.000000,-1.121714,-0.002746,0.000000,-1.121799,0.000000,0.081000,0.000243,1.000000,0.706984,0.172298,18.150002,-6795364572.711345,0.000000,386.811035,0.023258,0.342265,-6795364572.761345,-0.784478,1.000448,1.000000,0.000000,0.002080,0.000000,-0.002938,-0.762963,0.024929,0.005310,-0.032151,0.644398,0.707107,0.707229,-0.000064,-0.000046,0.020242,-0.003200,0.707232,0.000000,0.081000,0.706982,0.400555,0.000003,0.027875,9.000000,0.019834,0.000280,0.009053,446.437256,-0.057666,0.045944,0.048891,0.081000,11.799999,3.656347,0.000000,0.618000,0.164846,0.017492,0.000000,3.141593,0.034651,0.023258
0.016415,-0.000658,-6795364572.761345,0.707105,-0.999599,-6795364572.661345,-0.021591,0.036105,1.000000,-0.000074,0.000000,-1.121714,-0.002082,0.000000,-1.121006,0.000000,0.081000,0.000277,1.000000,0.706963,0.144519,18.150002,-6795364572.661345,0.000000,385.498688,0.029553,0.342265,-6795364572.711345,-0.784478,1.000346,1.000000,0.000000,0.001712,0.000000,-0.002824,-0.765506,0.028443,0.006877,-0.011371,0.644398,0.707107,0.707250,-0.000074,-0.000071,0.023763,-0.002314,0.707253,0.000000,0.338000,0.706960,0.429802,359.999997,0.030764,9.000000,0.023286,0.000305,0.009053,446.437256,-0.078589,0.045944,0.047934,0.338000,11.799999,3.656347,0.000000,0.638345,0.132986,0.018747,0.000000,3.141593,0.036105,0.029553
0.018054,-0.000658,-6795364572.661345,0.707105,-1.000286,-6795364572.661345,-0.013882,0.037657,1.000000,-0.000084,0.000000,-1.121714,-0.002142,0.000000,-1.122288,0.000000,0.338000,0.000307,1.000000,0.706946,0.141999,18.150002,-6795364572.611345,0.000000,385.498688,0.029553,0.342265,-6795364572.661345,-0.784478,1.000370,1.000000,0.000000,0.001652,0.000000,-0.002759,-0.774407,0.031634,0.006226,-0.017428,0.644398,0.707107,0.707268,-0.000084,-0.000100,0.026666,-0.002460,0.707271,0.000000,0.338000,0.706942,0.404370,359.999999,0.033841,9.000000,0.026131,0.000334,0.009053,446.456696,-0.067603,0.045944,0.048402,0.338000,11.799999,3.813449,0.000000,0.621815,0.125763,0.020209,0.000000,3.141593,0.036105,0.029553
0.019862,-0.000592,-6795364572.661345,0.707105,-1.000292,-6795364572.561345,-0.006975,0.037657,1.000000,-0.000090,0.000000,-1.121714,-0.002561,0.000000,-1.121942,0.000000,0.338000,0.000337,1.000000,0.706935,0.143958,18.150002,-6795364572.561345,0.000000,383.858276,0.040342,0.342265,-6795364572.611345,-0.784478,1.000362,1.000000,0.000000,0.001755,0.000000,-0.002757,-0.780765,0.034705,0.006185,-0.017305,0.644398,0.707107,0.707279,-0.000092,-0.000022,0.028453,-0.002528,0.707282,0.000000,0.569000,0.706931,0.378938,360.000000,0.036890,9.000000,0.027882,0.000365,0.009053,446.456696,-0.046446,0.045944,0.049033,0.569000,11.799999,3.813449,0.000000,0.625629,0.140422,0.022273,0.000000,3.141593,0.037657,0.040342
0.020863,-0.000592,-6795364572.561345,0.707105,-0.999533,-6795364572.561345,-0.028252,0.043696,1.000000,-0.000104,0.000000,-1.121714,-0.002096,0.000000,-1.120762,0.000000,0.569000,0.000361,1.000000,0.706918,0.148755,18.150002,-6795364572.511345,0.000000,383.858276,0.040342,0.342265,-6795364572.561345,-0.784478,1.000247,1.000000,0.000000,0.001697,0.000000,-0.002671,-0.747703,0.037566,0.006043,-0.013544,0.644398,0.707107,0.707295,-0.000103,-0.000139,0.031162,-0.002631,0.707299,0.000000,0.569000,0.706914,0.415815,0.000000,0.039789,9.000000,0.030537,0.000387,0.009053,446.515045,-0.065595,0.045944,0.048036,0.569000,11.799999,4.425064,0.000000,0.629444,0.126236,0.022971,0.000000,3.141593,0.037657,0.040342
0.021149,-0.000592,-6795364572.561345,0.707105,-0.999777,-6795364572.561345,-0.036498,0.043696,1.000000,-0.000115,0.000000,-1.121714,-0.002788,0.000000,-1.121453,0.000000,0.569000,0.000383,1.000000,0.706897,0.117463,18.150002,-6795364572.461345,0.000000,383.858276,0.040342,0.342265,-6795364572.511345,-0.784478,1.000210,1.000000,0.000000,0.001649,0.000000,-0.002712,-0.745160,0.040877,0.007406,-0.021798,0.644398,0.707107,0.707316,-0.000122,0.000199,0.034612,-0.001816,0.707320,0.000000,0.569000,0.706893,0.429802,0.000003,0.042408,9.000000,0.033919,0.000408,0.009053,446.515045,-0.081508,0.045944,0.049399,0.569000,11.799999,4.425064,0.000000,0.615457,0.149722,0.023721,0.000000,3.141593,0.043696,0.040342
0.022545,-0.000533,-6795364572.561345,0.707105,-1.000990,-6795364572.451345,-0.023548,0.042839,1.000000,-0.000127,0.000000,-1.121714,-0.002365,0.000000,-1.123325,0.000000,0.569000,0.000411,1.000000,0.706886,0.115838,18.150002,-6795364572.411345,0.000000,381.233612,0.064535,0.342265,-6795364572.461345,-0.784478,1.000340,1.000000,0.000000,0.001577,0.000000,-0.002659,-0.766778,0.044007,0.006714,-0.031993,0.644398,0.707107,0.707327,-0.000133,0.000147,0.036429,-0.002012,0.707331,0.000000,1.250000,0.706882,0.377667,0.000001,0.045443,9.000000,0.035699,0.000434,0.009053,446.515045,-0.050196,0.045944,0.048463,1.250000,11.799999,4.338298,0.000000,0.606555,0.139676,0.024888,0.000000,3.141593,0.043696,0.064535
0.023503,-0.000480,-6795364572.451345,0.707104,-1.001200,-6795364572.361345,-0.027746,0.042839,1.000000,-0.000145,0.000000,-1.121714,-0.003590,0.000000,-1.123000,0.000000,1.250000,0.000443,1.000000,0.706876,0.144064,18.150002,-6795364572.361345,0.000000,380.577454,0.075185,0.342265,-6795364572.411345,-0.784478,1.000435,1.000000,0.000000,0.002035,0.000000,-0.002804,-0.755333,0.048290,0.005656,-0.056958,0.644398,0.707107,0.707337,-0.000153,0.000257,0.038183,-0.002729,0.707342,0.000000,0.597000,0.706871,0.389111,359.999995,0.050204,9.000000,0.037416,0.000475,0.009053,446.515045,-0.049653,0.045944,0.050620,0.597000,11.799999,4.338298,0.000000,0.574765,0.185710,0.026748,0.000000,3.141593,0.042839,0.075185
0.025829,-0.000480,-6795364572.361345,0.707104,-0.999894,-6795364572.361345,-0.018441,0.049782,1.000000,-0.000156,0.000000,-1.121714,-0.002820,0.000000,-1.120884,0.000000,0.597000,0.000478,1.000000,0.706861,0.171039,18.150002,-6795364572.311345,0.000000,380.577454,0.075185,0.342265,-6795364572.361345,-0.784478,1.000325,1.000000,0.000000,0.002097,0.000000,-0.002773,-0.770592,0.051614,0.005249,-0.028217,0.644398,0.707107,0.707352,-0.000159,-0.000014,0.040623,-0.003187,0.707357,0.000000,0.597000,0.706856,0.412000,0.000000,0.054001,9.000000,0.039808,0.000510,0.009053,446.582031,-0.064127,0.045944,0.048708,0.597000,11.799999,5.041310,0.000000,0.625629,0.168823,0.028690,0.000000,3.141593,0.042839,0.075185
0.027478,-0.000432,-6795364572.361345,0.707104,-1.000089,-6795364572.261345,-0.024264,0.049782,1.000000,-0.000164,0.000000,-1.121714,-0.003098,0.000000,-1.121779,0.000000,0.597000,0.000510,1.000000,0.706856,0.149193,18.150002,-6795364572.261345,0.000000,379.593170,0.079061,0.342265,-6795364572.311345,-0.784478,1.000310,1.000000,0.000000,0.002000,0.000000,-0.002817,-0.757876,0.055142,0.006673,-0.022830,0.644398,0.707107,0.707357,-0.000171,0.000159,0.041453,-0.002441,0.707362,0.000000,0.269000,0.706851,0.361136,0.000001,0.057022,9.000000,0.040622,0.000540,0.009053,446.582031,-0.032896,0.045944,0.049562,0.269000,11.799999,5.041310,0.000000,0.623086,0.174904,0.030427,0.000000,3.141593,0.049782,0.079061
0.030771,-0.000432,-6795364572.261345,0.707104,-1.000623,-6795364572.261345,0.006842,0.037760,1.000000,-0.000165,0.000000,-1.121714,-0.003239,0.000000,-1.122532,0.000000,0.269000,0.000556,1.000000,0.706851,0.117499,18.150002,-6795364572.211345,0.000000,379.593170,0.079061,0.342265,-6795364572.261345,-0.784478,1.000364,1.000000,0.000000,0.001850,0.000000,-0.002865,-0.804926,0.059308,0.007324,-0.045753,0.644398,0.707107,0.707362,-0.000176,0.000400,0.042309,-0.001815,0.707368,0.000000,0.269000,0.706846,0.373852,0.000001,0.060471,9.000000,0.041461,0.000582,0.009053,446.486938,-0.033706,0.045944,0.049684,0.269000,11.799999,3.823901,0.000000,0.587481,0.182289,0.033802,0.000000,3.141593,0.049782,0.079061
0.033323,-0.000388,-6795364572.261345,0.707105,-1.001109,-6795364572.161345,-0.008041,0.037760,1.000000,-0.000170,0.000000,-1.121714,-0.002836,0.000000,-1.123081,0.000000,0.269000,0.000593,1.000000,0.706836,0.096473,18.150002,-6795364572.151345,0.000000,378.280853,0.086080,0.342265,-6795364572.211345,-0.784478,1.000459,1.000000,0.000000,0.001634,0.000000,-0.002845,-0.770592,0.062823,0.007487,-0.039231,0.644398,0.707107,0.707378,-0.000182,0.000443,0.044844,-0.001528,0.707383,0.000000,0.430000,0.706830,0.406913,359.999999,0.063495,9.000000,0.043947,0.000614,0.009053,446.486938,-0.056368,0.045944,0.048992,0.430000,11.799999,3.823901,0.000000,0.605284,0.168303,0.036023,0.000000,3.141593,0.037760,0.086080
0.035846,-0.000388,-6795364572.161345,0.707105,-1.000739,-6795364572.161345,-0.004478,0.043672,1.000000,-0.000171,0.000000,-1.121714,-0.002368,0.000000,-1.122288,0.000000,0.430000,0.000621,1.000000,0.706826,0.116572,18.150002,-6795364572.111345,0.000000,378.280853,0.086080,0.342265,-6795364572.151345,-0.784478,1.000471,1.000000,0.000000,0.001616,0.000000,-0.002777,-0.782037,0.064738,0.006287,-0.031122,0.644398,0.707107,0.707387,-0.000179,0.000178,0.046395,-0.002187,0.707393,0.000000,0.430000,0.706820,0.404370,0.000001,0.065774,9.000000,0.045467,0.000641,0.009053,446.544220,-0.061198,0.045944,0.048402,0.430000,11.799999,4.422600,0.000000,0.614185,0.145386,0.038038,0.000000,3.141593,0.037760,0.086080
0.037737,-0.000350,-6795364572.161345,0.707105,-0.999221,-6795364572.061345,-0.006084,0.043672,1.000000,-0.000179,0.000000,-1.121714,-0.002882,0.000000,-1.119989,0.000000,0.430000,0.000652,1.000000,0.706813,0.127660,18.150002,-6795364572.061345,0.000000,377.296600,0.098098,0.342265,-6795364572.111345,-0.784478,1.000281,1.000000,0.000000,0.001771,0.000000,-0.002810,-0.778222,0.067874,0.006389,-0.042030,0.644398,0.707107,0.707400,-0.000186,0.000195,0.048627,-0.002309,0.707406,0.000000,0.687000,0.706807,0.404370,360.000000,0.069068,9.000000,0.047653,0.000674,0.009053,446.544220,-0.063172,0.045944,0.049359,0.687000,11.799999,4.422600,0.000000,0.595111,0.159283,0.040168,0.000000,3.141593,0.043672,0.098098
0.039983,-0.000350,-6795364572.061345,0.707104,-1.000661,-6795364572.061345,-0.003770,0.042816,1.000000,-0.000191,0.000000,-1.121714,-0.003275,0.000000,-1.123020,0.000000,0.687000,0.000690,1.000000,0.706804,0.162940,18.150002,-6795364572.011345,0.000000,377.296600,0.098098,0.342265,-6795364572.061345,-0.784478,1.000381,1.000000,0.000000,0.002110,0.000000,-0.002873,-0.782037,0.071898,0.005188,-0.056630,0.644398,0.707107,0.707409,-0.000197,0.000100,0.050065,-0.003110,0.707415,0.000000,0.687000,0.706798,0.381481,359.999997,0.073718,9.000000,0.049062,0.000719,0.009053,446.544220,-0.048214,0.045944,0.049867,0.687000,11.799999,4.335883,0.000000,0.579852,0.179065,0.042765,0.000000,3.141593,0.043672,0.098098
0.041761,-0.000315,-6795364572.061345,0.707103,-0.999656,-6795364571.961345,-0.020169,0.042816,1.000000,-0.000204,0.000000,-1.121714,-0.003262,0.000000,-1.120721,0.000000,0.687000,0.000726,1.000000,0.706790,0.166024,18.150002,-6795364571.961345,0.000000,375.656189,0.108476,0.342265,-6795364572.011345,-0.784478,1.000265,1.000000,0.000000,0.002164,0.000000,-0.002911,-0.757876,0.075829,0.005860,-0.042276,0.644398,0.707107,0.707423,-0.000211,0.000115,0.052363,-0.002920,0.707429,0.000000,0.617000,0.706784,0.414543,359.999999,0.077632,9.000000,0.051313,0.000754,0.009053,446.544220,-0.065985,0.045944,0.049562,0.617000,11.799999,4.335883,0.000000,0.605284,0.184596,0.044619,0.000000,3.141593,0.042816,0.108476
0.044083,-0.000315,-6795364571.961345,0.707104,-0.998557,-6795364571.961345,-0.010812,0.041976,1.000000,-0.000217,0.000000,-1.121714,-0.002719,0.000000,-1.119480,0.000000,0.617000,0.000764,1.000000,0.706776,0.170645,18.150002,-6795364571.911345,0.000000,375.656189,0.108476,0.342265,-6795364571.961345,-0.784478,1.000047,1.000000,0.000000,0.002069,0.000000,-0.002869,-0.778222,0.079759,0.005615,-0.042598,0.644398,0.707107,0.707437,-0.000221,-0.000037,0.054673,-0.003009,0.707444,0.000000,0.617000,0.706769,0.408185,0.000000,0.081576,9.000000,0.053578,0.000790,0.009053,446.544220,-0.067167,0.045944,0.048647,0.617000,11.799999,4.250865,0.000000,0.598926,0.164602,0.046494,0.000000,3.141593,0.042816,0.108476
0.046015,-0.000283,-6795364571.961345,0.707104,-1.000089,-6795364571.861345,-0.009646,0.041976,1.000000,-0.000228,0.000000,-1.121714,-0.002417,0.000000,-1.122471,0.000000,0.617000,0.000798,1.000000,0.706767,0.164359,18.150002,-6795364571.861345,0.000000,375.000031,0.116587,0.342265,-6795364571.911345,-0.784478,1.000117,1.000000,0.000000,0.001917,0.000000,-0.002811,-0.775679,0.083343,0.005982,-0.035383,0.644398,0.707107,0.707445,-0.000231,-0.000111,0.056093,-0.002822,0.707452,0.000000,0.514000,0.706761,0.384025,360.000000,0.084962,9.000000,0.054970,0.000820,0.009053,446.544220,-0.050281,0.045944,0.048545,0.514000,11.799999,4.250865,0.000000,0.610370,0.146305,0.048022,0.000000,3.141593,0.041976,0.116587
0.048184,-0.000283,-6795364571.861345,0.707104,-1.000260,-6795364571.861345,0.003171,0.045546,1.000000,-0.000241,0.000000,-1.121714,-0.002706,0.000000,-1.121982,0.000000,0.514000,0.000839,1.000000,0.706761,0.163166,18.150002,-6795364571.811345,0.000000,375.000031,0.116587,0.342265,-6795364571.861345,-0.784478,1.000139,1.000000,0.000000,0.001947,0.000000,-0.002813,-0.793481,0.087826,0.005860,-0.057304,0.644398,0.707107,0.707452,-0.000245,-0.000066,0.057199,-0.002840,0.707459,0.000000,0.514000,0.706754,0.381481,360.000000,0.089331,9.000000,0.056053,0.000861,0.009053,446.582031,-0.044521,0.045944,0.049135,0.514000,11.799999,4.612397,0.000000,0.576037,0.152398,0.050269,0.000000,3.141593,0.041976,0.116587
0.049108,-0.000255,-6795364571.861345,0.707104,-0.999810,-6795364571.761345,-0.023298,0.045546,1.000000,-0.000262,0.000000,-1.121714,-0.002496,0.000000,-1.121209,0.000000,0.514000,0.000867,1.000000,0.706753,0.192427,18.150002,-6795364571.761345,0.000000,374.343842,0.123075,0.342265,-6795364571.811345,-0.784478,1.000087,1.000000,0.000000,0.002087,0.000000,-0.002772,-0.750247,0.091486,0.004680,-0.043134,0.644398,0.707107,0.707460,-0.000262,-0.000287,0.058496,-0.003577,0.707467,0.000000,0.441000,0.706746,0.391654,0.000001,0.093504,9.000000,0.057325,0.000892,0.009053,446.582031,-0.048826,0.045944,0.048626,0.441000,11.799999,4.612397,0.000000,0.605284,0.145837,0.051043,0.000000,3.141593,0.045546,0.123075
0.050326,-0.000255,-6795364571.761345,0.707103,-0.999210,-6795364571.761345,-0.014444,0.051557,1.000000,-0.000284,0.000000,-1.121714,-0.002541,0.000000,-1.120457,0.000000,0.441000,0.000902,1.000000,0.706740,0.211035,18.150002,-6795364571.711345,0.000000,374.343842,0.123075,0.342265,-6795364571.761345,-0.784478,0.999973,1.000000,0.000000,0.002201,0.000000,-0.002751,-0.774407,0.095905,0.004639,-0.048083,0.644398,0.707107,0.707472,-0.000282,-0.000403,0.060571,-0.003819,0.707480,0.000000,0.441000,0.706733,0.412000,0.000000,0.098207,9.000000,0.059358,0.000928,0.009053,446.641449,-0.064884,0.045944,0.048769,0.441000,11.799999,5.221059,0.000000,0.591296,0.145728,0.052236,0.000000,3.141593,0.045546,0.123075
0.051428,-0.000229,-6795364571.761345,0.707104,-0.999085,-6795364571.661345,-0.016289,0.051557,1.000000,-0.000294,0.000000,-1.121714,-0.002743,0.000000,-1.120518,0.000000,0.441000,0.000932,1.000000,0.706725,0.172726,18.150002,-6795364571.661345,0.000000,374.015747,0.125253,0.342265,-6795364571.711345,-0.784478,0.999879,1.000000,0.000000,0.002015,0.000000,-0.002759,-0.768049,0.099555,0.006511,-0.027042,0.644398,0.707107,0.707488,-0.000297,-0.000117,0.063153,-0.002726,0.707496,0.000000,0.232000,0.706717,0.422173,0.000001,0.101018,9.000000,0.061888,0.000953,0.009053,446.641449,-0.075870,0.045944,0.049074,0.232000,11.799999,5.221059,0.000000,0.623086,0.153817,0.053476,0.000000,3.141593,0.051557,0.125253
0.053670,-0.000229,-6795364571.661345,0.707104,-0.999775,-6795364571.661345,0.003752,0.050546,1.000000,-0.000290,0.000000,-1.121714,-0.002888,0.000000,-1.121677,0.000000,0.232000,0.000960,1.000000,0.706713,0.143140,18.150002,-6795364571.611345,0.000000,374.015747,0.125253,0.342265,-6795364571.661345,-0.784478,0.999898,1.000000,0.000000,0.001883,0.000000,-0.002778,-0.797296,0.101993,0.006714,-0.019570,0.644398,0.707107,0.707500,-0.000299,0.000116,0.065096,-0.002276,0.707508,0.000000,0.232000,0.706705,0.400555,0.000001,0.102815,9.000000,0.063794,0.000979,0.009053,446.641449,-0.064139,0.045944,0.049257,0.232000,11.799999,5.118686,0.000000,0.625629,0.161988,0.055836,0.000000,3.141593,0.051557,0.125253
0.055568,-0.000206,-6795364571.661345,0.707104,-1.000194,-6795364571.561345,-0.005501,0.050546,1.000000,-0.000287,0.000000,-1.121714,-0.002910,0.000000,-1.122023,0.000000,0.232000,0.000980,1.000000,0.706698,0.145170,18.150002,-6795364571.561345,0.000000,373.687683,0.132068,0.342265,-6795364571.611345,-0.784478,0.999946,1.000000,0.000000,0.001916,0.000000,-0.002792,-0.775679,0.103287,0.006063,-0.009521,0.644398,0.707107,0.707515,-0.000295,0.000124,0.067649,-0.002549,0.707523,0.000000,0.466000,0.706689,0.424716,0.000000,0.104124,9.000000,0.066295,0.000999,0.009053,446.641449,-0.077104,0.045944,0.049237,0.466000,11.799999,5.118686,0.000000,0.635802,0.165274,0.057763,0.000000,3.141593,0.050546,0.132068
0.057178,-0.000206,-6795364571.561345,0.707104,-0.999704,-6795364571.561345,-0.011857,0.046040,1.000000,-0.000288,0.000000,-1.121714,-0.003411,0.000000,-1.121006,0.000000,0.466000,0.001003,1.000000,0.706680,0.154003,18.150002,-6795364571.511345,0.000000,373.687683,0.132068,0.342265,-6795364571.561345,-0.784478,0.999901,1.000000,0.000000,0.002101,0.000000,-0.002876,-0.770592,0.105330,0.005860,-0.024221,0.644398,0.707107,0.707532,-0.000298,0.000200,0.070470,-0.002753,0.707541,0.000000,0.466000,0.706672,0.427259,359.999999,0.106302,9.000000,0.069060,0.001025,0.009053,446.611206,-0.083472,0.045944,0.049989,0.466000,11.799999,4.662413,0.000000,0.610370,0.186438,0.059764,0.000000,3.141593,0.050546,0.132068
0.059268,-0.000186,-6795364571.561345,0.707104,-1.000294,-6795364571.461345,-0.010023,0.046040,1.000000,-0.000295,0.000000,-1.121714,-0.002859,0.000000,-1.122227,0.000000,0.466000,0.001036,1.000000,0.706670,0.141984,18.099998,-6795364571.461345,0.000000,374.015747,0.136207,0.342265,-6795364571.511345,-0.784478,0.999965,1.000000,0.000000,0.001929,0.000000,-0.002850,-0.775679,0.108578,0.006551,-0.045587,0.644398,0.707107,0.707543,-0.000305,0.000176,0.072209,-0.002389,0.707551,0.000000,0.339000,0.706661,0.394197,359.999999,0.109245,9.000000,0.070764,0.001053,0.009053,446.611206,-0.062943,0.045944,0.048911,0.339000,11.799999,4.662413,0.000000,0.587481,0.170556,0.061494,0.000000,3.141593,0.046040,0.136207
0.060849,-0.000186,-6795364571.461345,0.707104,-0.999234,-6795364571.461345,-0.013019,0.046518,1.000000,-0.000296,0.000000,-1.121714,-0.003112,0.000000,-1.120212,0.000000,0.339000,0.001060,1.000000,0.706662,0.118927,18.099998,-6795364571.411345,0.000000,374.015747,0.136207,0.342265,-6795364571.461345,-0.784478,0.999847,1.000000,0.000000,0.001820,0.000000,-0.002888,-0.770592,0.110910,0.007141,-0.033356,0.644398,0.707107,0.707550,-0.000310,0.000353,0.073521,-0.001902,0.707560,0.000000,0.339000,0.706653,0.392926,0.000000,0.111069,9.000000,0.072051,0.001075,0.009053,446.623077,-0.055102,0.045944,0.049501,0.339000,11.799999,4.710814,0.000000,0.614185,0.176077,0.063153,0.000000,3.141593,0.046040,0.136207
0.062460,-0.000167,-6795364571.461345,0.707104,-0.999871,-6795364571.361345,-0.013978,0.046518,1.000000,-0.000295,0.000000,-1.121714,-0.002780,0.000000,-1.121779,0.000000,0.339000,0.001075,1.000000,0.706653,0.134395,18.099998,-6795364571.361345,0.000000,373.687683,0.144063,0.342265,-6795364571.411345,-0.784478,0.999876,1.000000,0.000000,0.001843,0.000000,-0.002863,-0.770592,0.111778,0.006022,-0.014240,0.644398,0.707107,0.707560,-0.000305,0.000185,0.075058,-0.002461,0.707569,0.000000,0.529000,0.706643,0.404370,0.000001,0.112229,9.000000,0.073557,0.001090,0.009053,446.623077,-0.060134,0.045944,0.048911,0.529000,11.799999,4.710814,0.000000,0.635802,0.164353,0.064499,0.000000,3.141593,0.046518,0.144063
0.063522,-0.000167,-6795364571.361345,0.707105,-1.000826,-6795364571.361345,-0.019657,0.047740,1.000000,-0.000309,0.000000,-1.121714,-0.001494,0.000000,-1.123081,0.000000,0.529000,0.001094,1.000000,0.706641,0.145404,18.099998,-6795364571.311345,0.000000,373.687683,0.144063,0.342265,-6795364571.361345,-0.784478,1.000012,1.000000,0.000000,0.001571,0.000000,-0.002671,-0.762963,0.113795,0.006043,-0.031410,0.644398,0.707107,0.707571,-0.000311,-0.000223,0.076953,-0.002622,0.707581,0.000000,0.529000,0.706632,0.412000,0.000002,0.114427,9.000000,0.075413,0.001104,0.009053,446.641449,-0.067884,0.045944,0.047060,0.529000,11.799999,4.834531,0.000000,0.602741,0.109190,0.064436,0.000000,3.141593,0.046518,0.144063
0.062843,-0.000150,-6795364571.361345,0.707105,-1.000572,-6795364571.261345,-0.031997,0.047740,1.000000,-0.000325,0.000000,-1.121714,-0.002083,0.000000,-1.122145,0.000000,0.529000,0.001104,1.000000,0.706631,0.134734,18.099998,-6795364571.261345,0.000000,373.359589,0.149961,0.342265,-6795364571.311345,-0.784478,1.000057,1.000000,0.000000,0.001549,0.000000,-0.002637,-0.747703,0.116085,0.006673,-0.033222,0.644398,0.707107,0.707581,-0.000329,-0.000114,0.078647,-0.002273,0.707591,0.000000,0.439000,0.706621,0.404370,0.000001,0.116457,9.000000,0.077074,0.001113,0.009053,446.641449,-0.064641,0.045944,0.048585,0.439000,11.799999,4.834531,0.000000,0.607827,0.116253,0.063911,0.000000,3.141593,0.047740,0.149961
0.063063,-0.000150,-6795364571.261345,0.707105,-1.000490,-6795364571.261345,-0.014255,0.047933,1.000000,-0.000338,0.000000,-1.121714,-0.002755,0.000000,-1.122105,0.000000,0.439000,0.001124,1.000000,0.706621,0.130899,18.099998,-6795364571.201345,0.000000,373.359589,0.149961,0.342265,-6795364571.261345,-0.784478,1.000097,1.000000,0.000000,0.001704,0.000000,-0.002678,-0.778222,0.119199,0.006531,-0.045765,0.644398,0.707107,0.707591,-0.000347,0.000089,0.080296,-0.002257,0.707601,0.000000,0.439000,0.706611,0.389111,0.000001,0.119432,9.000000,0.078690,0.001136,0.009053,446.651184,-0.053642,0.045944,0.049379,0.439000,11.799999,4.854135,0.000000,0.591296,0.145315,0.064708,0.000000,3.141593,0.047740,0.149961
0.064084,-0.000135,-6795364571.261345,0.707105,-1.000872,-6795364571.161345,-0.012613,0.047933,1.000000,-0.000340,0.000000,-1.121714,-0.002292,0.000000,-1.122796,0.000000,0.439000,0.001139,1.000000,0.706611,0.116944,18.099998,-6795364571.151345,0.000000,373.687683,0.155962,0.342265,-6795364571.201345,-0.784478,1.000191,1.000000,0.000000,0.001557,0.000000,-0.002619,-0.773136,0.120493,0.007040,-0.021302,0.644398,0.707107,0.707601,-0.000349,0.000114,0.081950,-0.001938,0.707611,0.000000,0.450000,0.706601,0.412000,360.000000,0.120421,9.000000,0.080311,0.001147,0.009053,446.651184,-0.065192,0.045944,0.048341,0.450000,11.799999,4.854135,0.000000,0.630716,0.135459,0.065511,0.000000,3.141593,0.047933,0.155962
0.065067,-0.000135,-6795364571.161345,0.707105,-1.000140,-6795364571.161345,-0.011254,0.046993,1.000000,-0.000342,0.000000,-1.121714,-0.002417,0.000000,-1.121433,0.000000,0.450000,0.001150,1.000000,0.706604,0.142791,18.099998,-6795364571.111345,0.000000,373.687683,0.155962,0.342265,-6795364571.151345,-0.784478,1.000155,1.000000,0.000000,0.001730,0.000000,-0.002604,-0.774407,0.121328,0.005676,-0.022747,0.644398,0.707107,0.707609,-0.000348,-0.000032,0.083180,-0.002686,0.707619,0.000000,0.450000,0.706593,0.415815,360.000000,0.121756,9.000000,0.081517,0.001162,0.009053,446.651184,-0.071697,0.045944,0.048708,0.450000,11.799999,4.758955,0.000000,0.618000,0.137550,0.066517,0.000000,3.141593,0.047933,0.155962
0.066355,-0.000122,-6795364571.161345,0.707104,-1.000460,-6795364571.061345,-0.002875,0.046993,1.000000,-0.000349,0.000000,-1.121714,-0.002990,0.000000,-1.122267,0.000000,0.450000,0.001172,1.000000,0.706585,0.173406,18.099998,-6795364571.051345,0.000000,374.015747,0.154023,0.342265,-6795364571.111345,-0.784478,1.000199,1.000000,0.000000,0.002064,0.000000,-0.002667,-0.785852,0.123664,0.005127,-0.031892,0.644398,0.707107,0.707627,-0.000355,-0.000076,0.086230,-0.003257,0.707638,0.000000,0.059000,0.706574,0.422173,359.999997,0.124658,9.000000,0.084505,0.001190,0.009053,446.651184,-0.078524,0.045944,0.049603,0.059000,11.799999,4.758955,0.000000,0.605284,0.161143,0.068251,0.000000,3.141593,0.046993,0.154023
0.066864,-0.000122,-6795364571.061345,0.707105,-1.000990,-6795364571.061345,-0.034778,0.048331,1.000000,-0.000360,0.000000,-1.121714,-0.002091,0.000000,-1.123020,0.000000,0.059000,0.001189,1.000000,0.706585,0.152930,18.099998,-6795364571.011345,0.000000,374.015747,0.154023,0.342265,-6795364571.051345,-0.784478,1.000301,1.000000,0.000000,0.001759,0.000000,-0.002571,-0.736259,0.125852,0.006592,-0.029904,0.644398,0.707107,0.707627,-0.000365,-0.000128,0.086249,-0.002518,0.707638,0.000000,0.059000,0.706574,0.370037,359.999997,0.126392,9.000000,0.084524,0.001200,0.009053,446.670624,-0.043574,0.045944,0.047914,0.059000,11.799999,4.894440,0.000000,0.614185,0.132132,0.068170,0.000000,3.141593,0.046993,0.154023
0.067068,-0.000110,-6795364571.061345,0.707104,-1.000409,-6795364570.961345,-0.022108,0.048331,1.000000,-0.000373,0.000000,-1.121714,-0.002778,0.000000,-1.121779,0.000000,0.059000,0.001206,1.000000,0.706585,0.160101,18.099998,-6795364570.961345,0.000000,373.687683,0.157863,0.342265,-6795364571.011345,-0.784478,1.000287,1.000000,0.000000,0.001920,0.000000,-0.002621,-0.768049,0.128432,0.005697,-0.040833,0.644398,0.707107,0.707627,-0.000380,-0.000056,0.086258,-0.002849,0.707638,0.000000,0.346000,0.706574,0.371309,359.999999,0.129064,9.000000,0.084532,0.001220,0.009053,446.670624,-0.034631,0.045944,0.049399,0.346000,11.799999,4.894440,0.000000,0.597654,0.151028,0.068748,0.000000,3.141593,0.048331,0.157863
0.068452,-0.000110,-6795364570.961345,0.707104,-1.000582,-6795364570.961345,-0.006047,0.049517,1.000000,-0.000370,0.000000,-1.121714,-0.003643,0.000000,-1.122288,0.000000,0.346000,0.001226,1.000000,0.706578,0.153100,18.099998,-6795364570.911345,0.000000,373.687683,0.157863,0.342265,-6795364570.961345,-0.784478,1.000324,1.000000,0.000000,0.002125,0.000000,-0.002760,-0.785852,0.130235,0.006226,-0.023489,0.644398,0.707107,0.707634,-0.000382,0.000236,0.087385,-0.002621,0.707645,0.000000,0.346000,0.706567,0.408185,0.000001,0.130691,9.000000,0.085637,0.001244,0.009053,446.688995,-0.057039,0.045944,0.050478,0.346000,11.799999,5.014556,0.000000,0.625629,0.191348,0.070910,0.000000,3.141593,0.048331,0.157863
0.070844,-0.000099,-6795364570.961345,0.707103,-1.000823,-6795364570.861345,-0.001270,0.049517,1.000000,-0.000370,0.000000,-1.121714,-0.004034,0.000000,-1.122593,0.000000,0.346000,0.001256,1.000000,0.706564,0.177782,18.099998,-6795364570.851345,0.000000,373.031494,0.167265,0.342265,-6795364570.911345,-0.784478,1.000384,1.000000,0.000000,0.002449,0.000000,-0.002904,-0.785852,0.132732,0.005046,-0.034112,0.644398,0.707107,0.707648,-0.000383,0.000255,0.089772,-0.003290,0.707659,0.000000,0.628000,0.706553,0.414543,359.999998,0.133631,9.000000,0.087975,0.001280,0.009053,446.688995,-0.068863,0.045944,0.050701,0.628000,11.799999,5.014556,0.000000,0.602741,0.219082,0.073809,0.000000,3.141593,0.049517,0.167265
0.074043,-0.000099,-6795364570.861345,0.707103,-1.000729,-6795364570.861345,0.005752,0.049802,1.000000,-0.000368,0.000000,-1.121714,-0.003714,0.000000,-1.122349,0.000000,0.628000,0.001293,1.000000,0.706564,0.177427,18.099998,-6795364570.811345,0.000000,373.031494,0.167265,0.342265,-6795364570.851345,-0.784478,1.000414,1.000000,0.000000,0.002419,0.000000,-0.002971,-0.793481,0.135492,0.005676,-0.046578,0.644398,0.707107,0.707647,-0.000380,0.000229,0.089644,-0.003096,0.707659,0.000000,0.628000,0.706553,0.370037,359.999999,0.136329,9.000000,0.087850,0.001315,0.009053,446.699799,-0.041654,0.045944,0.049989,0.628000,11.799999,5.043342,0.000000,0.591296,0.214590,0.076855,0.000000,3.141593,0.049517,0.167265
0.076269,-0.000099,-6795364570.861345,0.707103,-1.000528,-6795364570.861345,-0.011825,0.049802,1.000000,-0.000368,0.000000,-1.121714,-0.003714,0.000000,-1.122064,0.000000,0.628000,0.001321,1.000000,0.706561,0.168347,18.099998,-6795364570.761345,0.000000,373.031494,0.167265,0.342265,-6795364570.811345,-0.784478,1.000417,1.000000,0.000000,0.002355,0.000000,-0.003045,-0.765506,0.137880,0.005941,-0.031095,0.644398,0.707107,0.707650,-0.000381,0.000277,0.090147,-0.002872,0.707662,0.000000,0.628000,0.706550,0.389111,360.000000,0.138487,9.000000,0.088344,0.001342,0.009053,446.699799,-0.045909,0.045944,0.050132,0.628000,11.799999,5.043342,0.000000,0.618000,0.213272,0.079009,0.000000,3.141593,0.049802,0.167265
0.078202,-0.000089,-6795364570.861345,0.707103,-0.998720,-6795364570.751345,-0.016297,0.045436,1.000000,-0.000373,0.000000,-1.121714,-0.003240,0.000000,-1.119297,0.000000,0.628000,0.001347,1.000000,0.706555,0.169184,18.099998,-6795364570.711345,0.000000,372.703430,0.173420,0.342265,-6795364570.761345,-0.784478,1.000170,1.000000,0.000000,0.002242,0.000000,-0.003045,-0.766778,0.140184,0.005676,-0.034017,0.644398,0.707107,0.707657,-0.000384,0.000154,0.091256,-0.002955,0.707668,0.000000,0.475000,0.706543,0.404370,360.000000,0.140763,9.000000,0.089430,0.001365,0.009053,446.670624,-0.058193,0.045944,0.049257,0.475000,11.799999,4.601257,0.000000,0.606555,0.194094,0.080520,0.000000,3.141593,0.049802,0.173420
0.081295,-0.000080,-6795364570.751345,0.707103,-1.000273,-6795364570.661345,0.015376,0.045436,1.000000,-0.000361,0.000000,-1.121714,-0.003481,0.000000,-1.122634,0.000000,0.475000,0.001372,1.000000,0.706550,0.185683,18.099998,-6795364570.661345,0.000000,372.047272,0.180192,0.342265,-6795364570.711345,-0.784478,1.000247,1.000000,0.000000,0.002366,0.000000,-0.003099,-0.813827,0.141143,0.005086,-0.007687,0.644398,0.707107,0.707662,-0.000370,0.000075,0.092036,-0.003365,0.707673,0.000000,0.512000,0.706539,0.391654,360.000000,0.142032,9.000000,0.090195,0.001392,0.009053,446.670624,-0.052121,0.045944,0.050010,0.512000,11.799999,4.601257,0.000000,0.645975,0.197822,0.083626,0.000000,3.141593,0.045436,0.180192
0.083889,-0.000080,-6795364570.661345,0.707103,-1.001437,-6795364570.661345,0.005043,0.044545,1.000000,-0.000364,0.000000,-1.121714,-0.002599,0.000000,-1.123814,0.000000,0.512000,0.001402,1.000000,0.706536,0.190037,18.099998,-6795364570.611345,0.000000,372.047272,0.180192,0.342265,-6795364570.661345,-0.784478,1.000416,1.000000,0.000000,0.002181,0.000000,-0.003010,-0.785852,0.143332,0.005310,-0.026121,0.644398,0.707107,0.707675,-0.000368,-0.000164,0.094272,-0.003354,0.707687,0.000000,0.512000,0.706525,0.434889,0.000000,0.144265,9.000000,0.092386,0.001417,0.009053,446.670624,-0.081508,0.045944,0.048524,0.512000,11.799999,4.511036,0.000000,0.606555,0.163417,0.085480,0.000000,3.141593,0.045436,0.180192
0.084229,-0.000072,-6795364570.661345,0.707104,-1.000797,-6795364570.561345,-0.021027,0.044545,1.000000,-0.000375,0.000000,-1.121714,-0.002793,0.000000,-1.122186,0.000000,0.512000,0.001421,1.000000,0.706523,0.154883,18.099998,-6795364570.551345,0.000000,370.734924,0.190768,0.342265,-6795364570.611345,-0.784478,1.000426,1.000000,0.000000,0.001949,0.000000,-0.002997,-0.752790,0.146157,0.006755,-0.031636,0.644398,0.707107,0.707689,-0.000383,0.000038,0.096514,-0.002442,0.707701,0.000000,0.709000,0.706511,0.404370,360.000000,0.146330,9.000000,0.094584,0.001432,0.009053,446.670624,-0.068757,0.045944,0.049196,0.709000,11.799999,4.511036,0.000000,0.607827,0.160974,0.085764,0.000000,3.141593,0.044545,0.190768
0.085492,-0.000072,-6795364570.561345,0.707104,-1.000813,-6795364570.561345,-0.005547,0.039279,1.000000,-0.000374,0.000000,-1.121714,-0.002881,0.000000,-1.122532,0.000000,0.709000,0.001434,1.000000,0.706521,0.174108,18.099998,-6795364570.501345,0.000000,370.734924,0.190768,0.342265,-6795364570.551345,-0.784478,1.000466,1.000000,0.000000,0.002085,0.000000,-0.002989,-0.785852,0.146874,0.005127,-0.010931,0.644398,0.707107,0.707691,-0.000380,-0.000064,0.096859,-0.003185,0.707703,0.000000,0.709000,0.706509,0.377667,360.000000,0.147417,9.000000,0.094922,0.001447,0.009053,446.632812,-0.045495,0.045944,0.049257,0.709000,11.799999,3.977701,0.000000,0.640889,0.163753,0.087058,0.000000,3.141593,0.044545,0.190768
0.086524,-0.000065,-6795364570.561345,0.707104,-1.000406,-6795364570.461345,-0.013489,0.039279,1.000000,-0.000377,0.000000,-1.121714,-0.002455,0.000000,-1.121901,0.000000,0.709000,0.001446,1.000000,0.706519,0.189748,18.099998,-6795364570.461345,0.000000,369.750671,0.200352,0.342265,-6795364570.501345,-0.784478,1.000442,1.000000,0.000000,0.002081,0.000000,-0.002917,-0.768049,0.147862,0.005086,-0.011216,0.644398,0.707107,0.707692,-0.000380,-0.000260,0.097076,-0.003430,0.707704,0.000000,0.670000,0.706507,0.399284,0.000001,0.148699,9.000000,0.095134,0.001459,0.009053,446.632812,-0.053826,0.045944,0.048504,0.670000,11.799999,3.977701,0.000000,0.630716,0.147532,0.087745,0.000000,3.141593,0.039279,0.200352
0.087182,-0.000065,-6795364570.461345,0.707104,-0.999784,-6795364570.461345,-0.011383,0.046291,1.000000,-0.000383,0.000000,-1.121714,-0.001865,0.000000,-1.121128,0.000000,0.670000,0.001457,1.000000,0.706516,0.191713,18.099998,-6795364570.411345,0.000000,369.750671,0.200352,0.342265,-6795364570.461345,-0.784478,1.000350,1.000000,0.000000,0.001918,0.000000,-0.002787,-0.774407,0.148913,0.005310,-0.004368,0.644398,0.707107,0.707696,-0.000382,-0.000448,0.097715,-0.003360,0.707708,0.000000,0.670000,0.706503,0.392926,0.000000,0.149769,9.000000,0.095761,0.001466,0.009053,446.699799,-0.051623,0.045944,0.047731,0.670000,11.799999,4.687786,0.000000,0.640889,0.119063,0.087821,0.000000,3.141593,0.039279,0.200352
0.086177,-0.000058,-6795364570.461345,0.707105,-0.999591,-6795364570.361345,-0.033005,0.046291,1.000000,-0.000396,0.000000,-1.121714,-0.002552,0.000000,-1.121047,0.000000,0.670000,0.001465,1.000000,0.706512,0.142110,18.099998,-6795364570.361345,0.000000,369.094513,0.204385,0.342265,-6795364570.411345,-0.784478,1.000266,1.000000,0.000000,0.001729,0.000000,-0.002793,-0.742617,0.151306,0.007284,-0.030810,0.644398,0.707107,0.707700,-0.000403,-0.000025,0.098316,-0.002108,0.707712,0.000000,0.402000,0.706500,0.391654,0.000004,0.151121,9.000000,0.096350,0.001470,0.009053,446.699799,-0.051059,0.045944,0.049114,0.402000,11.799999,4.687786,0.000000,0.600197,0.138102,0.087216,0.000000,3.141593,0.046291,0.204385
0.086229,-0.000058,-6795364570.361345,0.707104,-0.999648,-6795364570.361345,-0.019853,0.043124,1.000000,-0.000399,0.000000,-1.121714,-0.003451,0.000000,-1.121189,0.000000,0.402000,0.001477,1.000000,0.706510,0.127975,18.099998,-6795364570.311345,0.000000,369.094513,0.204385,0.342265,-6795364570.361345,-0.784478,1.000206,1.000000,0.000000,0.001900,0.000000,-0.002897,-0.770592,0.153114,0.006653,-0.039924,0.644398,0.707107,0.707701,-0.000414,0.000320,0.098551,-0.002127,0.707713,0.000000,0.402000,0.706498,0.381481,0.000003,0.152609,9.000000,0.096581,0.001485,0.009053,446.680328,-0.043969,0.045944,0.050233,0.402000,11.799999,4.367071,0.000000,0.598926,0.179900,0.088102,0.000000,3.141593,0.046291,0.204385
0.088378,-0.000052,-6795364570.361345,0.707104,-1.000162,-6795364570.261345,0.005392,0.043124,1.000000,-0.000400,0.000000,-1.121714,-0.003130,0.000000,-1.122023,0.000000,0.402000,0.001504,1.000000,0.706507,0.119497,18.099998,-6795364570.261345,0.000000,369.094513,0.207738,0.342265,-6795364570.311345,-0.784478,1.000224,1.000000,0.000000,0.001845,0.000000,-0.002907,-0.801111,0.155480,0.006836,-0.057486,0.644398,0.707107,0.707704,-0.000415,0.000370,0.099073,-0.002023,0.707716,0.000000,0.372000,0.706495,0.391654,0.000001,0.154759,9.000000,0.097092,0.001511,0.009053,446.680328,-0.049749,0.045944,0.049318,0.372000,11.799999,4.367071,0.000000,0.577308,0.179464,0.090199,0.000000,3.141593,0.043124,0.207738
0.089515,-0.000052,-6795364570.261345,0.707103,-0.999495,-6795364570.261345,-0.013864,0.042278,1.000000,-0.000396,0.000000,-1.121714,-0.004171,0.000000,-1.120640,0.000000,0.372000,0.001518,1.000000,0.706499,0.135337,18.099998,-6795364570.211345,0.000000,369.094513,0.207738,0.342265,-6795364570.261345,-0.784478,1.000122,1.000000,0.000000,0.002200,0.000000,-0.003078,-0.762963,0.156567,0.006043,-0.036270,0.644398,0.707107,0.707712,-0.000415,0.000530,0.100450,-0.002479,0.707725,0.000000,0.372000,0.706487,0.415815,359.999998,0.156140,9.000000,0.098441,0.001532,0.009053,446.680328,-0.067109,0.045944,0.051088,0.372000,11.799999,4.281442,0.000000,0.614185,0.221209,0.092149,0.000000,3.141593,0.043124,0.207738
0.091003,-0.000047,-6795364570.261345,0.707103,-0.999655,-6795364570.161345,-0.023052,0.042278,1.000000,-0.000395,0.000000,-1.121714,-0.003974,0.000000,-1.121250,0.000000,0.372000,0.001534,1.000000,0.706495,0.149249,18.099998,-6795364570.161345,0.000000,369.422577,0.213223,0.342265,-6795364570.211345,-0.784478,1.000083,1.000000,0.000000,0.002314,0.000000,-0.003159,-0.757876,0.157714,0.005900,-0.031560,0.644398,0.707107,0.707716,-0.000413,0.000472,0.101126,-0.002708,0.707729,0.000000,0.482000,0.706482,0.389111,359.999999,0.157542,9.000000,0.099104,0.001550,0.009053,446.680328,-0.053648,0.045944,0.050295,0.482000,11.799999,4.281442,0.000000,0.612913,0.225784,0.093699,0.000000,3.141593,0.042278,0.213223
0.093173,-0.000047,-6795364570.161345,0.707104,-0.998604,-6795364570.161345,-0.008918,0.041449,1.000000,-0.000394,0.000000,-1.121714,-0.002969,0.000000,-1.119541,0.000000,0.482000,0.001558,1.000000,0.706488,0.124858,18.099998,-6795364570.101345,0.000000,369.422577,0.213223,0.342265,-6795364570.161345,-0.784478,0.999890,1.000000,0.000000,0.001924,0.000000,-0.003098,-0.782037,0.159446,0.007141,-0.031816,0.644398,0.707107,0.707723,-0.000410,0.000383,0.102256,-0.001994,0.707736,0.000000,0.482000,0.706475,0.392926,359.999996,0.158752,9.000000,0.100212,0.001566,0.009053,446.680328,-0.052487,0.045944,0.048708,0.482000,11.799999,4.197492,0.000000,0.610370,0.186990,0.095048,0.000000,3.141593,0.042278,0.213223
0.094474,-0.000043,-6795364570.161345,0.707104,-1.000662,-6795364570.061345,-0.014522,0.041449,1.000000,-0.000394,0.000000,-1.121714,-0.003104,0.000000,-1.123325,0.000000,0.482000,0.001572,1.000000,0.706486,0.138539,18.099998,-6795364570.061345,0.000000,369.750671,0.220318,0.342265,-6795364570.101345,-0.784478,1.000055,1.000000,0.000000,0.001969,0.000000,-0.003104,-0.768049,0.160299,0.005982,-0.038753,0.644398,0.707107,0.707725,-0.000408,0.000259,0.102557,-0.002522,0.707738,0.000000,0.568000,0.706474,0.401827,359.999999,0.159862,9.000000,0.100506,0.001580,0.009053,446.680328,-0.058577,0.045944,0.049562,0.568000,11.799999,4.197492,0.000000,0.600197,0.180498,0.096194,0.000000,3.141593,0.041449,0.220318
0.095745,-0.000043,-6795364570.061345,0.707105,-0.999954,-6795364570.061345,-0.009202,0.021683,1.000000,-0.000397,0.000000,-1.121714,-0.002284,0.000000,-1.121250,0.000000,0.568000,0.001588,1.000000,0.706476,0.125743,18.099998,-6795364570.011345,0.000000,369.750671,0.220318,0.342265,-6795364570.061345,-0.784478,1.000015,1.000000,0.000000,0.001675,0.000000,-0.002987,-0.778222,0.161644,0.006897,-0.035768,0.644398,0.707107,0.707735,-0.000408,0.000124,0.104279,-0.002099,0.707748,0.000000,0.568000,0.706463,0.423444,359.999998,0.160925,9.000000,0.102194,0.001590,0.009053,446.517212,-0.075398,0.045944,0.048097,0.568000,11.799999,2.195838,0.000000,0.606555,0.145777,0.096745,0.000000,3.141593,0.041449,0.220318
0.095758,-0.000038,-6795364570.061345,0.707104,-0.999218,-6795364569.971345,-0.019896,0.021683,1.000000,-0.000399,0.000000,-1.121714,-0.003126,0.000000,-1.120355,0.000000,0.568000,0.001588,1.000000,0.706471,0.161001,18.099998,-6795364569.961345,0.000000,369.750671,0.219192,0.342265,-6795364570.011345,-0.784478,0.999903,1.000000,0.000000,0.002038,0.000000,-0.003037,-0.760420,0.161683,0.005127,-0.015255,0.644398,0.707107,0.707741,-0.000408,0.000051,0.105148,-0.003071,0.707754,0.000000,0.164000,0.706458,0.394197,359.999996,0.161668,9.000000,0.103045,0.001597,0.009053,446.517212,-0.059051,0.045944,0.049806,0.164000,11.799999,2.195838,0.000000,0.635802,0.169215,0.097227,0.000000,3.141593,0.021683,0.219192
0.094964,-0.000038,-6795364569.971345,0.707104,-0.999757,-6795364569.971345,-0.045445,0.021258,1.000000,-0.000415,0.000000,-1.121714,-0.002510,0.000000,-1.121616,0.000000,0.164000,0.001595,1.000000,0.706464,0.146820,18.099998,-6795364569.911345,0.000000,369.750671,0.219192,0.342265,-6795364569.961345,-0.784478,0.999912,1.000000,0.000000,0.001841,0.000000,-0.002958,-0.728629,0.163521,0.006592,-0.037160,0.644398,0.707107,0.707747,-0.000425,0.000029,0.106294,-0.002456,0.707761,0.000000,0.164000,0.706450,0.408185,359.999998,0.163186,9.000000,0.104168,0.001600,0.009053,446.517212,-0.064916,0.045944,0.048463,0.164000,11.799999,2.152782,0.000000,0.595111,0.151459,0.096094,0.000000,3.141593,0.021683,0.219192
0.094828,-0.000034,-6795364569.971345,0.707104,-1.000882,-6795364569.861345,-0.025486,0.021258,1.000000,-0.000423,0.000000,-1.121714,-0.002489,0.000000,-1.123163,0.000000,0.164000,0.001597,1.000000,0.706457,0.170951,18.099998,-6795364569.861345,0.000000,370.078766,0.222528,0.342265,-6795364569.911345,-0.784478,1.000057,1.000000,0.000000,0.001951,0.000000,-0.002910,-0.768049,0.164038,0.005168,-0.017160,0.644398,0.707107,0.707754,-0.000429,-0.000159,0.107326,-0.003167,0.707767,0.000000,0.386000,0.706444,0.404370,360.000000,0.164176,9.000000,0.105180,0.001604,0.009053,446.517212,-0.063137,0.045944,0.048789,0.386000,11.799999,2.152782,0.000000,0.633259,0.145156,0.095835,0.000000,3.141593,0.021258,0.222528
0.093355,-0.000034,-6795364569.861345,0.707104,-1.000345,-6795364569.861345,-0.049785,0.017452,1.000000,-0.000436,0.000000,-1.121714,-0.002696,0.000000,-1.121738,0.000000,0.386000,0.001594,1.000000,0.706451,0.164658,18.099998,-6795364569.811345,0.000000,370.078766,0.222528,0.342265,-6795364569.861345,-0.784478,1.000063,1.000000,0.000000,0.001952,0.000000,-0.002897,-0.724815,0.164990,0.006043,-0.016387,0.644398,0.707107,0.707760,-0.000444,-0.000080,0.108443,-0.002828,0.707774,0.000000,0.386000,0.706437,0.408185,0.000000,0.164982,9.000000,0.106274,0.001601,0.009053,446.488037,-0.065246,0.045944,0.049074,0.386000,11.799999,1.767377,0.000000,0.625629,0.151632,0.094521,0.000000,3.141593,0.021258,0.222528
0.093550,-0.000031,-6795364569.861345,0.707104,-1.001211,-6795364569.761345,-0.019570,0.017452,1.000000,-0.000443,0.000000,-1.121714,-0.002513,0.000000,-1.123407,0.000000,0.386000,0.001601,1.000000,0.706448,0.173665,18.099998,-6795364569.761345,0.000000,370.734924,0.222358,0.342265,-6795364569.811345,-0.784478,1.000215,1.000000,0.000000,0.001973,0.000000,-0.002850,-0.778222,0.165994,0.005453,-0.020332,0.644398,0.707107,0.707763,-0.000449,-0.000170,0.108837,-0.003102,0.707776,0.000000,0.214000,0.706435,0.386568,0.000000,0.166147,9.000000,0.106660,0.001609,0.009053,446.488037,-0.051207,0.045944,0.048748,0.214000,11.799999,1.767377,0.000000,0.620543,0.146143,0.094602,0.000000,3.141593,0.017452,0.222358
0.095096,-0.000031,-6795364569.761345,0.707104,-1.000975,-6795364569.761345,0.008056,0.012717,1.000000,-0.000449,0.000000,-1.121714,-0.002605,0.000000,-1.122593,0.000000,0.214000,0.001629,1.000000,0.706438,0.152595,18.099998,-6795364569.701345,0.000000,370.734924,0.222358,0.342265,-6795364569.761345,-0.784478,1.000281,1.000000,0.000000,0.001856,0.000000,-0.002830,-0.804926,0.168942,0.006531,-0.046688,0.644398,0.707107,0.707773,-0.000457,-0.000027,0.110464,-0.002508,0.707786,0.000000,0.214000,0.706425,0.408185,0.000000,0.168614,9.000000,0.108254,0.001633,0.009053,446.450226,-0.063321,0.045944,0.048952,0.214000,11.799999,1.287842,0.000000,0.583666,0.148229,0.096158,0.000000,3.141593,0.017452,0.222358
0.096500,-0.000031,-6795364569.761345,0.707105,-1.000572,-6795364569.761345,0.008347,0.012717,1.000000,-0.000445,0.000000,-1.121714,-0.002596,0.000000,-1.122064,0.000000,0.214000,0.001644,1.000000,0.706436,0.141606,18.099998,-6795364569.661345,0.000000,370.734924,0.222358,0.342265,-6795364569.701345,-0.784478,1.000293,1.000000,0.000000,0.001790,0.000000,-0.002806,-0.793481,0.169976,0.006429,-0.034175,0.644398,0.707107,0.707775,-0.000455,0.000043,0.110863,-0.002391,0.707789,0.000000,0.214000,0.706422,0.406913,0.000000,0.169408,9.000000,0.108646,0.001647,0.009053,446.450226,-0.065164,0.045944,0.048870,0.214000,11.799999,1.287842,0.000000,0.612913,0.148519,0.097540,0.000000,3.141593,0.012717,0.222358
0.097035,-0.000031,-6795364569.761345,0.707104,-1.000035,-6795364569.761345,-0.010315,0.012468,1.000000,-0.000451,0.000000,-1.121714,-0.002966,0.000000,-1.121372,0.000000,0.214000,0.001659,1.000000,0.706427,0.134269,18.099998,-6795364569.611345,0.000000,370.734924,0.222358,0.342265,-6795364569.661345,-0.784478,1.000244,1.000000,0.000000,0.001837,0.000000,-0.002838,-0.766778,0.171933,0.006531,-0.050622,0.644398,0.707107,0.707783,-0.000464,0.000180,0.112282,-0.002289,0.707797,0.000000,0.214000,0.706413,0.415815,0.000000,0.171178,9.000000,0.110037,0.001663,0.009053,446.450226,-0.072629,0.045944,0.049440,0.214000,11.799999,1.262590,0.000000,0.583666,0.163490,0.098363,0.000000,3.141593,0.012717,0.222358
0.098696,-0.000031,-6795364569.761345,0.707105,-1.000812,-6795364569.761345,0.006467,0.012468,1.000000,-0.000449,0.000000,-1.121714,-0.002403,0.000000,-1.122918,0.000000,0.214000,0.001676,1.000000,0.706423,0.130565,18.099998,-6795364569.561345,0.000000,370.734924,0.222358,0.342265,-6795364569.611345,-0.784478,1.000334,1.000000,0.000000,0.001703,0.000000,-0.002770,-0.798568,0.173048,0.006551,-0.037499,0.644398,0.707107,0.707788,-0.000460,0.000091,0.112998,-0.002253,0.707802,0.000000,0.214000,0.706409,0.394197,360.000000,0.172198,9.000000,0.110739,0.001677,0.009053,446.450226,-0.059164,0.045944,0.048423,0.214000,11.799999,1.262590,0.000000,0.610370,0.145355,0.099628,0.000000,3.141593,0.012468,0.222358
0.100297,-0.000028,-6795364569.761345,0.707104,-1.000401,-6795364569.541345,0.013163,0.021505,1.000000,-0.000437,0.000000,-1.121714,-0.003581,0.000000,-1.121799,0.000000,0.214000,0.001689,1.000000,0.706415,0.130887,18.099998,-6795364569.511345,0.000000,371.719177,0.224131,0.342265,-6795364569.561345,-0.784478,1.000323,1.000000,0.000000,0.001963,0.000000,-0.002901,-0.801111,0.173438,0.006470,-0.024938,0.644398,0.707107,0.707795,-0.000453,0.000347,0.114237,-0.002288,0.707809,0.000000,0.311000,0.706401,0.415815,360.000000,0.172586,9.000000,0.111953,0.001694,0.009053,446.528015,-0.069930,0.045944,0.050539,0.311000,11.799999,2.177774,0.000000,0.621815,0.187184,0.102034,0.000000,3.141593,0.012468,0.224131
0.102210,-0.000025,-6795364569.541345,0.707104,-1.001105,-6795364569.461345,0.002729,0.021505,1.000000,-0.000428,0.000000,-1.121714,-0.003241,0.000000,-1.123163,0.000000,0.311000,0.001706,1.000000,0.706404,0.105178,18.099998,-6795364569.451345,0.000000,372.047272,0.226008,0.342265,-6795364569.511345,-0.784478,1.000431,1.000000,0.000000,0.001797,0.000000,-0.002920,-0.783308,0.174335,0.007528,-0.029283,0.644398,0.707107,0.707807,-0.000447,0.000499,0.116199,-0.001645,0.707821,0.000000,0.318000,0.706389,0.412000,360.000000,0.172950,9.000000,0.113876,0.001708,0.009053,446.528015,-0.070719,0.045944,0.049481,0.318000,11.799999,2.177774,0.000000,0.610370,0.185992,0.103884,0.000000,3.141593,0.021505,0.226008
0.103737,-0.000025,-6795364569.461345,0.707104,-1.000240,-6795364569.461345,-0.003877,0.012046,1.000000,-0.000419,0.000000,-1.121714,-0.003310,0.000000,-1.121433,0.000000,0.318000,0.001715,1.000000,0.706403,0.112843,18.099998,-6795364569.411345,0.000000,372.047272,0.226008,0.342265,-6795364569.451345,-0.784478,1.000375,1.000000,0.000000,0.001860,0.000000,-0.002962,-0.778222,0.174294,0.006592,-0.033692,0.644398,0.707107,0.707808,-0.000437,0.000467,0.116294,-0.002027,0.707822,0.000000,0.318000,0.706389,0.396741,360.000000,0.173063,9.000000,0.113969,0.001718,0.009053,446.450226,-0.060364,0.045944,0.049684,0.318000,11.799999,1.219888,0.000000,0.606555,0.188503,0.105431,0.000000,3.141593,0.021505,0.226008
0.104259,-0.000023,-6795364569.461345,0.707105,-1.000449,-6795364569.361345,-0.023595,0.012046,1.000000,-0.000423,0.000000,-1.121714,-0.003184,0.000000,-1.122186,0.000000,0.318000,0.001728,1.000000,0.706402,0.093427,18.099998,-6795364569.361345,0.000000,372.375336,0.232148,0.342265,-6795364569.411345,-0.784478,1.000392,1.000000,0.000000,0.001713,0.000000,-0.002979,-0.752790,0.175850,0.007650,-0.055835,0.644398,0.707107,0.707808,-0.000444,0.000560,0.116427,-0.001486,0.707823,0.000000,0.533000,0.706388,0.384025,360.000000,0.174200,9.000000,0.114099,0.001728,0.009053,446.450226,-0.049058,0.045944,0.049481,0.533000,11.799999,1.219888,0.000000,0.577308,0.184203,0.105856,0.000000,3.141593,0.012046,0.232148
0.105008,-0.000023,-6795364569.361345,0.707105,-1.000548,-6795364569.361345,-0.017122,0.008421,1.000000,-0.000434,0.000000,-1.121714,-0.002624,0.000000,-1.122288,0.000000,0.533000,0.001743,1.000000,0.706400,0.112119,18.099998,-6795364569.311345,0.000000,372.375336,0.232148,0.342265,-6795364569.361345,-0.784478,1.000411,1.000000,0.000000,0.001682,0.000000,-0.002919,-0.770592,0.177479,0.006409,-0.065671,0.644398,0.707107,0.707811,-0.000449,0.000298,0.116846,-0.002098,0.707825,0.000000,0.533000,0.706385,0.396741,0.000002,0.176170,9.000000,0.114509,0.001741,0.009053,446.421051,-0.054806,0.045944,0.048647,0.533000,11.799999,0.852776,0.000000,0.572222,0.160459,0.106116,0.000000,3.141593,0.012046,0.232148
0.105854,-0.000020,-6795364569.361345,0.707105,-1.000053,-6795364569.261345,-0.004560,0.008421,1.000000,-0.000428,0.000000,-1.121714,-0.003430,0.000000,-1.121372,0.000000,0.533000,0.001753,1.000000,0.706390,0.089854,18.099998,-6795364569.251345,0.000000,372.375336,0.231505,0.342265,-6795364569.311345,-0.784478,1.000354,1.000000,0.000000,0.001700,0.000000,-0.003005,-0.785852,0.178338,0.007813,-0.036240,0.644398,0.707107,0.707820,-0.000449,0.000592,0.118365,-0.001402,0.707835,0.000000,0.200000,0.706376,0.409457,0.000003,0.176566,9.000000,0.115999,0.001752,0.009053,446.421051,-0.064199,0.045944,0.050172,0.200000,11.799999,0.852776,0.000000,0.618000,0.185713,0.107449,0.000000,3.141593,0.008421,0.231505
0.106615,-0.000020,-6795364569.261345,0.707104,-1.000164,-6795364569.261345,-0.016938,0.011645,1.000000,-0.000430,0.000000,-1.121714,-0.002823,0.000000,-1.121860,0.000000,0.200000,0.001758,1.000000,0.706380,0.128293,18.099998,-6795364569.201345,0.000000,372.375336,0.231505,0.342265,-6795364569.251345,-0.784478,1.000340,1.000000,0.000000,0.001834,0.000000,-0.002961,-0.762963,0.178298,0.005676,-0.034796,0.644398,0.707107,0.707831,-0.000444,0.000251,0.120119,-0.002527,0.707845,0.000000,0.200000,0.706365,0.431074,0.000003,0.177297,9.000000,0.117717,0.001759,0.009053,446.450226,-0.082334,0.045944,0.048830,0.200000,11.799999,1.179248,0.000000,0.606555,0.168925,0.107861,0.000000,3.141593,0.008421,0.231505
0.105957,-0.000018,-6795364569.261345,0.707105,-1.000185,-6795364569.161345,-0.038270,0.011645,1.000000,-0.000443,0.000000,-1.121714,-0.001651,0.000000,-1.121901,0.000000,0.200000,0.001755,1.000000,0.706375,0.136569,18.099998,-6795364569.151345,0.000000,372.703430,0.230155,0.342265,-6795364569.201345,-0.784478,1.000325,1.000000,0.000000,0.001564,0.000000,-0.002780,-0.737531,0.178477,0.006348,-0.023711,0.644398,0.707107,0.707836,-0.000449,-0.000121,0.120966,-0.002446,0.707851,0.000000,0.164000,0.706360,0.399284,0.000003,0.177638,9.000000,0.118547,0.001751,0.009053,446.450226,-0.064924,0.045944,0.047243,0.164000,11.799999,1.179248,0.000000,0.623086,0.116896,0.106175,0.000000,3.141593,0.011645,0.230155
0.105536,-0.000018,-6795364569.161345,0.707104,-1.000029,-6795364569.161345,-0.021437,0.011416,1.000000,-0.000457,0.000000,-1.121714,-0.001915,0.000000,-1.121616,0.000000,0.164000,0.001756,1.000000,0.706381,0.189934,18.099998,-6795364569.121345,0.000000,372.703430,0.230155,0.342265,-6795364569.151345,-0.784478,1.000289,1.000000,0.000000,0.001862,0.000000,-0.002704,-0.770592,0.179170,0.004273,-0.051135,0.644398,0.707107,0.707830,-0.000456,-0.000482,0.120010,-0.003714,0.707845,0.000000,0.164000,0.706366,0.381481,0.000002,0.179385,9.000000,0.117610,0.001758,0.009053,446.450226,-0.048675,0.045944,0.048219,0.164000,11.799999,1.156125,0.000000,0.579852,0.111890,0.105664,0.000000,3.141593,0.011645,0.230155
0.104983,-0.000016,-6795364569.161345,0.707103,-0.999157,-6795364569.071345,-0.013790,0.011416,1.000000,-0.000472,0.000000,-1.121714,-0.003114,0.000000,-1.120212,0.000000,0.164000,0.001770,1.000000,0.706379,0.193581,18.099998,-6795364569.071345,0.000000,372.703430,0.231972,0.342265,-6795364569.121345,-0.784478,1.000139,1.000000,0.000000,0.002173,0.000000,-0.002797,-0.774407,0.181995,0.005371,-0.052309,0.644398,0.707107,0.707831,-0.000477,-0.000216,0.120259,-0.003403,0.707846,0.000000,0.321000,0.706364,0.394833,360.000000,0.182226,9.000000,0.117853,0.001778,0.009053,446.450226,-0.052887,0.045944,0.049959,0.321000,11.799999,1.156125,0.000000,0.589389,0.158574,0.106055,0.000000,3.141593,0.011416,0.231972
0.106023,-0.000016,-6795364569.071345,0.707103,-0.999602,-6795364569.071345,-0.000796,0.010063,1.000000,-0.000475,0.000000,-1.121714,-0.003121,0.000000,-1.121372,0.000000,0.321000,0.001787,1.000000,0.706378,0.203313,18.099998,-6795364569.021345,0.000000,372.703430,0.231972,0.342265,-6795364569.071345,-0.784478,1.000104,1.000000,0.000000,0.002321,0.000000,-0.002830,-0.789666,0.183723,0.004883,-0.030037,0.644398,0.707107,0.707833,-0.000481,-0.000188,0.120455,-0.003620,0.707847,0.000000,0.321000,0.706363,0.392926,359.999999,0.184113,9.000000,0.118046,0.001798,0.009053,446.440491,-0.051974,0.045944,0.049440,0.321000,11.799999,1.019058,0.000000,0.621815,0.172798,0.107359,0.000000,3.141593,0.011416,0.231972
0.106853,-0.000015,-6795364569.071345,0.707103,-1.000159,-6795364568.971345,-0.010297,0.010063,1.000000,-0.000474,0.000000,-1.121714,-0.003436,0.000000,-1.122023,0.000000,0.321000,0.001800,1.000000,0.706375,0.189566,18.099998,-6795364568.971345,0.000000,372.703430,0.233572,0.342265,-6795364569.021345,-0.784478,1.000133,1.000000,0.000000,0.002340,0.000000,-0.002904,-0.770592,0.184863,0.005656,-0.015096,0.644398,0.707107,0.707835,-0.000483,0.000000,0.120922,-0.003206,0.707850,0.000000,0.312000,0.706360,0.401827,0.000001,0.184955,9.000000,0.118503,0.001810,0.009053,446.440491,-0.057490,0.045944,0.049969,0.312000,11.799999,1.019058,0.000000,0.633259,0.189626,0.108509,0.000000,3.141593,0.010063,0.233572
