headingMag,PitchGPS,B1,Z3,M3,GPSTrueCourse,BaroPressureAltitude,W3,W1,needsInitialization,PitchGyr,H1,GPSNACp,C2,gLoad,EGPS2,EGPS3,Roll,E3,Pitch,staticMode,WValid,HeadingGPS,W1a,EGyr1,Z1,GPSHorizontalAccuracy,D1,TWa,W2,SmoothGroundSpeed,A2,T,H2,GPSVerticalAccuracy,A3,B2,SmoothW2,EGyr0,E0,A1,GPSFixQuality,headingValid,Ta,E1,slipSkid,C3,M2,Heading,SmoothW1,H3,GPSAltitudeMSL,C1,M1,W2a,EGyr3,HeadingGyr,EGPS0,B3,Z2,TW,E2,EGyr2,turnRate,RollGyr,RollGPS,W3a,GroundSpeed,D3,EGPS1,D2,BaroVerticalSpeed
3.141593,0.000000,-0.815677,0.000000,0.000000,0.000000,441.625366,-0.010219,0.000000,0.000000,0.000000,0.000000,10.000000,-0.306966,0.895376,0.000000,0.707107,0.000000,0.707107,0.000000,0.000000,1.000000,0.000000,0.000000,0.000000,0.000000,7.400000,5.721267,-6795364573.101345,0.267000,0.005340,0.045792,-6795364573.061345,0.000000,16.000000,-1.118720,0.648692,0.005340,0.707107,0.707107,0.008734,1.000000,0.000000,-6795364573.061345,0.000000,-0.312927,-1.117113,0.000000,0.000000,0.000000,0.000000,394.685059,0.199615,0.000000,0.267000,0.707107,0.000000,0.707107,0.357205,0.000000,-6795364573.101345,0.000000,0.000000,-0.101952,0.000000,0.000000,-0.010219,0.267000,-3.046129,0.000000,-5.085964,-1.034857
3.141593,6.203120,-0.829086,-0.627547,0.000000,0.000000,441.604858,-0.012403,0.000000,0.000000,-0.162334,3.948135,10.000000,-0.306966,0.895488,0.039312,0.707810,0.448577,0.705983,-0.032100,1.000000,1.000000,359.707198,0.000000,0.000219,-0.102669,7.400000,5.721267,-6795364573.101345,0.267000,0.005340,0.045859,-6795364573.011345,3.239647,16.000000,-1.120070,0.648518,0.005340,0.708366,0.708218,0.009033,1.000000,0.000000,-6795364573.061345,0.002575,-0.312926,-1.117113,0.000000,0.180951,0.000000,-4.089788,394.685059,0.199615,0.000000,0.267000,0.705842,0.204211,0.695873,0.356049,-0.203046,-6795364573.101345,0.002962,0.002218,-0.101952,0.197118,12.529497,-0.010219,0.267000,-3.046129,0.114979,-5.085964,-1.256038
3.141593,8.034428,-0.801111,-0.814700,0.000000,0.000000,441.604858,-0.012403,0.000000,0.000000,-0.245531,5.110439,10.000000,-0.306966,0.895430,0.051213,0.705949,1.025345,0.704526,-0.073202,1.000000,1.000000,359.885807,0.000000,0.002848,-0.132799,7.400000,5.721267,-6795364573.101345,0.156000,0.008353,0.046266,-6795364572.961345,4.215257,16.000000,-1.118076,0.659963,0.008353,0.709844,0.709622,0.009827,1.000000,0.000000,-6795364573.011345,0.005900,-0.312966,-1.117113,0.000000,0.412268,0.000000,-5.329871,395.013153,0.199615,0.000000,0.267000,0.704329,0.445313,0.690498,0.377667,-0.263878,-6795364572.991345,0.006757,0.005845,-0.091757,0.703459,16.316937,-0.012403,0.156000,-3.046129,0.149085,-5.085964,-1.256038
3.141593,8.609118,-0.826543,-0.871421,0.000000,0.000000,441.634033,-0.008771,0.000000,0.000000,-0.304781,5.479534,10.000000,-0.306966,0.895460,0.054648,0.705217,1.633006,0.702982,-0.119025,1.000000,1.000000,359.963220,0.000000,0.006191,-0.142712,7.400000,5.721267,-6795364572.991345,0.156000,0.008353,0.046470,-6795364572.911345,4.517184,16.000000,-1.119378,0.666321,0.008353,0.711337,0.711064,0.008545,1.000000,0.000000,-6795364572.961345,0.009403,-0.313022,-1.117113,0.000000,0.653200,0.000000,-5.688318,395.013153,0.199615,0.000000,0.156000,0.702754,0.692047,0.688653,0.350963,-0.282451,-6795364572.991345,0.010757,0.009855,-0.091757,1.298399,17.465755,-0.012403,0.156000,-3.046129,0.159497,-5.085964,-0.888265
3.141593,8.794054,-0.824000,-0.887583,0.000000,0.000000,441.634033,-0.008771,0.000000,0.000000,-0.358299,5.590338,10.000000,-0.306966,0.895365,0.055516,0.704993,2.240605,0.701427,-0.168383,1.000000,1.000000,359.988731,0.000000,0.009697,-0.145649,7.400000,5.721267,-6795364572.991345,0.261000,0.013406,0.045778,-6795364572.861345,4.608876,16.000000,-1.117710,0.663778,0.013406,0.712788,0.712472,0.008362,1.000000,0.000000,-6795364572.911345,0.012902,-0.313017,-1.117113,0.000000,0.891850,0.000000,-5.784935,394.356964,0.199615,0.000000,0.156000,0.701174,0.935178,0.688084,0.335704,-0.287362,-6795364572.901345,0.014764,0.013926,-0.082581,1.911343,17.797508,-0.008771,0.261000,-3.046129,0.162614,-5.085964,-0.888265
3.141593,8.821358,-0.818913,-0.892530,0.000000,0.000000,441.634033,-0.008599,0.000000,0.000000,-0.410906,5.616499,10.000000,-0.306966,0.895293,0.055878,0.704916,2.838681,0.699872,-0.220416,1.000000,1.000000,359.996610,0.000000,0.013198,-0.145772,7.400000,5.721267,-6795364572.901345,0.261000,0.013406,0.045534,-6795364572.811345,4.612142,16.000000,-1.117588,0.638345,0.013406,0.714190,0.713836,0.009644,1.000000,0.000000,-6795364572.861345,0.016340,-0.312984,-1.117113,0.000000,1.126454,0.000000,-5.834042,394.356964,0.199615,0.000000,0.261000,0.699597,1.173725,0.687969,0.373852,-0.288676,-6795364572.901345,0.018715,0.017949,-0.082581,2.520006,17.885383,-0.008771,0.261000,-3.046129,0.163309,-5.085964,-0.870848
3.141593,8.864826,-0.850703,-0.893715,0.000000,0.000000,441.634033,-0.008599,0.000000,0.000000,-0.466358,5.648700,10.000000,-0.306966,0.895186,0.055848,0.704904,3.426747,0.698332,-0.274868,1.000000,1.000000,359.998977,0.000000,0.016640,-0.146828,7.400000,5.721267,-6795364572.901345,0.197000,0.017078,0.046083,-6795364572.761345,4.621658,16.000000,-1.117527,0.644704,0.017078,0.715535,0.715145,0.007874,1.000000,0.000000,-6795364572.811345,0.019715,-0.313013,-1.117113,0.000000,1.354795,0.000000,-5.838490,394.028870,0.199615,0.000000,0.261000,0.698034,1.405979,0.687865,0.350963,-0.289376,-6795364572.801345,0.022606,0.021921,-0.074323,3.119441,17.924609,-0.008599,0.197000,-3.046129,0.163807,-5.085964,-0.870848
3.141593,8.861367,-0.821457,-0.895616,0.000000,0.000000,441.634033,-0.008431,0.000000,0.000000,-0.523683,5.637059,10.000000,-0.306966,0.895311,0.055767,0.704906,4.001654,0.696807,-0.332104,1.000000,1.000000,359.999693,0.000000,0.020008,-0.146710,7.400000,5.721267,-6795364572.801345,0.197000,0.017078,0.044964,-6795364572.711345,4.621768,16.000000,-1.119744,0.643432,0.017078,0.716826,0.716402,0.009033,1.000000,0.000000,-6795364572.761345,0.023006,-0.312925,-1.117113,0.000000,1.577179,0.000000,-5.842882,394.028870,0.199615,0.000000,0.197000,0.696487,1.632003,0.687898,0.361136,-0.289293,-6795364572.801345,0.026422,0.025816,-0.074323,3.706668,17.908066,-0.008599,0.197000,-3.046129,0.163687,-5.085964,-0.853772
3.141593,8.863230,-0.827815,-0.894843,0.000000,0.000000,441.634033,-0.008431,0.000000,0.000000,-0.583705,5.637329,10.000000,-0.306966,0.895231,0.055975,0.704888,4.565393,0.695298,-0.391750,1.000000,1.000000,359.999908,0.000000,0.023295,-0.146701,7.400000,5.721267,-6795364572.801345,0.107000,0.018876,0.046815,-6795364572.661345,4.621716,16.000000,-1.117954,0.644704,0.018876,0.718065,0.717609,0.008606,1.000000,0.000000,-6795364572.711345,0.026224,-0.313021,-1.117113,0.000000,1.793685,0.000000,-5.848571,393.044647,0.199615,0.000000,0.197000,0.694955,1.852163,0.687846,0.366222,-0.290049,-6795364572.701345,0.030173,0.029639,-0.066891,4.281324,17.943906,-0.008431,0.107000,-3.046129,0.163913,-5.085964,-0.853772
3.141593,8.862470,-0.803654,-0.895531,0.000000,0.000000,441.527069,-0.020690,0.000000,0.000000,-0.646388,5.621338,10.000000,-0.306966,0.895290,0.055988,0.704887,5.116685,0.693809,-0.453997,1.000000,1.000000,359.999972,0.000000,0.026503,-0.146771,7.400000,5.721267,-6795364572.701345,0.107000,0.018876,0.046022,-6795364572.611345,4.629124,16.000000,-1.119338,0.653605,0.018876,0.719250,0.718764,0.008749,1.000000,0.000000,-6795364572.661345,0.029360,-0.313030,-1.117113,0.000000,2.003949,0.000000,-5.843958,393.044647,0.199615,0.000000,0.107000,0.693442,2.065919,0.687845,0.358592,-0.290038,-6795364572.701345,0.033853,0.033394,-0.066891,4.843988,17.945184,-0.008431,0.107000,-3.046129,0.163916,-5.085964,-2.095228
3.141593,8.884329,-0.812555,-0.896518,0.000000,0.000000,441.527069,-0.020690,0.000000,0.000000,-0.710440,5.624436,10.000000,-0.306966,0.895455,0.055807,0.704901,5.656601,0.692340,-0.517039,1.000000,1.000000,359.999992,0.000000,0.029641,-0.147455,7.400000,5.721267,-6795364572.701345,0.251000,0.023519,0.045839,-6795364572.561345,4.613878,16.000000,-1.120823,0.625629,0.023519,0.720384,0.719868,0.007874,1.000000,0.000000,-6795364572.611345,0.032432,-0.313020,-1.117113,0.000000,2.207886,0.000000,-5.833444,391.404236,0.199615,0.000000,0.107000,0.691949,2.273275,0.687825,0.350963,-0.290164,-6795364572.601345,0.037459,0.037077,-0.060202,5.395170,17.937727,-0.020690,0.251000,-3.046129,0.164003,-5.085964,-2.095228
3.141593,8.874900,-0.803654,-0.896340,0.000000,0.000000,441.527069,-0.020284,0.000000,0.000000,-0.776267,5.616625,10.000000,-0.306966,0.895536,0.055770,0.704904,6.184642,0.690887,-0.582402,1.000000,1.000000,359.999997,0.000000,0.032705,-0.147025,7.400000,5.721267,-6795364572.601345,0.251000,0.023519,0.045412,-6795364572.511345,4.618019,16.000000,-1.119704,0.643432,0.023519,0.721473,0.720930,0.008789,1.000000,0.000000,-6795364572.561345,0.035425,-0.312973,-1.117113,0.000000,2.406667,0.000000,-5.844327,391.404236,0.199615,0.000000,0.251000,0.690472,2.475308,0.687860,0.368765,-0.289780,-6795364572.601345,0.040998,0.040689,-0.060202,5.934414,17.922268,-0.020690,0.251000,-3.046129,0.163854,-5.085964,-2.054145
3.141593,8.854323,-0.854518,-0.897533,0.000000,0.000000,441.527069,-0.020284,0.000000,0.000000,-0.844415,5.647194,10.000000,-0.306966,0.895787,0.055986,0.704887,6.703555,0.689444,-0.650190,1.000000,1.000000,0.000000,0.000000,0.035702,-0.146816,7.400000,5.721267,-6795364572.601345,0.343000,0.029909,0.046449,-6795364572.461345,4.622204,16.000000,-1.122105,0.652333,0.029909,0.722522,0.721953,0.009278,1.000000,0.000000,-6795364572.511345,0.038355,-0.313012,-1.117113,0.000000,2.600910,0.000000,-5.866261,390.419952,0.199615,0.000000,0.251000,0.689006,2.672757,0.687869,0.385296,-0.290640,-6795364572.501345,0.044487,0.044245,-0.054181,6.463689,17.936789,-0.020284,0.343000,-3.046129,0.163817,-5.085964,-2.054145
3.141593,8.864380,-0.831629,-0.896498,0.000000,0.000000,441.527069,-0.019886,0.000000,0.000000,-0.914572,5.645082,10.000000,-0.306966,0.895814,0.055911,0.704893,7.211656,0.688027,-0.719248,1.000000,1.000000,0.000000,0.000000,0.038629,-0.147030,7.400000,5.721267,-6795364572.501345,0.343000,0.029909,0.045818,-6795364572.411345,4.624290,16.000000,-1.119622,0.643432,0.029909,0.723521,0.722927,0.008423,1.000000,0.000000,-6795364572.461345,0.041219,-0.313004,-1.117113,0.000000,2.788536,0.000000,-5.843964,390.419952,0.199615,0.000000,0.343000,0.687565,2.863502,0.687858,0.348420,-0.290144,-6795364572.501345,0.047911,0.047740,-0.054181,6.982224,17.934632,-0.020284,0.343000,-3.046129,0.163865,-5.085964,-2.013868
3.141593,8.870753,-0.808741,-0.895340,0.000000,0.000000,441.527069,-0.019886,0.000000,0.000000,-0.985772,5.627573,10.000000,-0.306966,0.895717,0.056009,0.704885,7.708918,0.686631,-0.789336,1.000000,1.000000,360.000000,0.000000,0.041484,-0.146948,7.400000,5.721267,-6795364572.501345,0.623000,0.041770,0.046754,-6795364572.361345,4.621313,16.000000,-1.118381,0.640889,0.041770,0.724477,0.723859,0.008423,1.000000,0.000000,-6795364572.411345,0.044016,-0.313086,-1.117113,0.000000,2.970622,0.000000,-5.840856,389.435699,0.199615,0.000000,0.343000,0.686145,3.048640,0.687817,0.358592,-0.290336,-6795364572.391345,0.051268,0.051163,-0.048763,7.489160,17.956997,-0.019886,0.623000,-3.046129,0.164037,-5.085964,-2.013868
3.141593,8.890166,-0.818913,-0.895414,0.000000,0.000000,441.576752,-0.013724,0.000000,0.000000,-1.057681,5.628784,10.000000,-0.306966,0.895690,0.055848,0.704898,8.195910,0.685253,-0.859797,1.000000,1.000000,0.000000,0.000000,0.044281,-0.147365,7.400000,5.721267,-6795364572.391345,0.623000,0.041770,0.045941,-6795364572.311345,4.612138,16.000000,-1.119012,0.630716,0.041770,0.725393,0.724752,0.007813,1.000000,0.000000,-6795364572.361345,0.046754,-0.313087,-1.117113,0.000000,3.147698,0.000000,-5.844349,389.435699,0.199615,0.000000,0.623000,0.684742,3.228649,0.687799,0.366222,-0.290026,-6795364572.391345,0.054558,0.054523,-0.048763,7.986199,17.950168,-0.019886,0.623000,-3.046129,0.164113,-5.085964,-1.389764
3.141593,8.875214,-0.839259,-0.896925,0.000000,0.000000,441.576752,-0.013724,0.000000,0.000000,-1.130835,5.646240,10.000000,-0.306966,0.895878,0.055769,0.704904,8.673183,0.683898,-0.932133,1.000000,1.000000,359.999999,0.000000,0.047018,-0.147082,7.400000,5.721267,-6795364572.391345,0.227000,0.045475,0.045228,-6795364572.261345,4.624488,16.000000,-1.121250,0.644704,0.045475,0.726264,0.725604,0.008911,1.000000,0.000000,-6795364572.311345,0.049426,-0.313010,-1.117113,0.000000,3.318958,0.000000,-5.830071,389.107605,0.199615,0.000000,0.623000,0.683363,3.402642,0.687860,0.335704,-0.289878,-6795364572.301345,0.057795,0.057827,-0.043887,8.473794,17.922295,-0.013724,0.227000,-3.046129,0.163856,-5.085964,-1.389764
3.141593,8.900274,-0.829086,-0.895930,0.000000,0.000000,441.479553,-0.024749,0.000000,0.000000,-1.205084,5.643865,10.000000,-0.306966,0.895841,0.055708,0.704909,9.140908,0.682563,-1.004659,1.000000,1.000000,359.999998,0.000000,0.049686,-0.147658,7.400000,5.721267,-6795364572.301345,0.227000,0.045475,0.046307,-6795364572.211345,4.620769,16.000000,-1.119256,0.635802,0.045475,0.727098,0.726417,0.007406,1.000000,0.000000,-6795364572.261345,0.052042,-0.313053,-1.117113,0.000000,3.485112,0.000000,-5.828027,389.107605,0.199615,0.000000,0.227000,0.682004,3.571569,0.687802,0.343333,-0.290138,-6795364572.301345,0.060969,0.061067,-0.043887,8.950666,17.937497,-0.013724,0.227000,-3.046129,0.164097,-5.085964,-2.506327
3.141593,8.877694,-0.793481,-0.896036,0.000000,0.000000,441.479553,-0.024749,0.000000,0.000000,-1.279728,5.617993,10.000000,-0.306966,0.895865,0.055887,0.704895,9.597902,0.681249,-1.078507,1.000000,1.000000,360.000000,0.000000,0.052291,-0.146953,7.400000,5.721267,-6795364572.301345,0.265000,0.049865,0.046205,-6795364572.161345,4.622379,16.000000,-1.119663,0.640889,0.049865,0.727896,0.727196,0.008972,1.000000,0.000000,-6795364572.211345,0.054588,-0.313073,-1.117113,0.000000,3.646360,0.000000,-5.826649,388.779541,0.199615,0.000000,0.227000,0.680667,3.735416,0.687825,0.347148,-0.290221,-6795364572.201345,0.064081,0.064239,-0.039498,9.416819,17.944062,-0.024749,0.265000,-3.046129,0.164001,-5.085964,-2.506327
3.141593,8.857642,-0.818913,-0.896143,0.000000,0.000000,441.479553,-0.024264,0.000000,0.000000,-1.355954,5.627309,10.000000,-0.306966,0.895897,0.055858,0.704897,10.045461,0.679952,-1.153803,1.000000,1.000000,359.999998,0.000000,0.054834,-0.146620,7.400000,5.721267,-6795364572.201345,0.265000,0.049865,0.045127,-6795364572.111345,4.629493,16.000000,-1.119460,0.651062,0.049865,0.728660,0.727943,0.009196,1.000000,0.000000,-6795364572.161345,0.057072,-0.312993,-1.117113,0.000000,3.803140,0.000000,-5.831964,388.779541,0.199615,0.000000,0.265000,0.679346,3.894665,0.687889,0.348420,-0.289595,-6795364572.201345,0.067140,0.067361,-0.039498,9.873988,17.919261,-0.024749,0.265000,-3.046129,0.163732,-5.085964,-2.457184
3.141593,8.838788,-0.793481,-0.896336,0.000000,0.000000,441.479553,-0.024264,0.000000,0.000000,-1.432402,5.609015,10.000000,-0.306966,0.895949,0.056163,0.704873,10.483573,0.678668,-1.229256,1.000000,1.000000,0.000002,0.000000,0.057314,-0.146388,7.400000,5.721267,-6795364572.201345,0.259000,0.054048,0.046999,-6795364572.061345,4.610196,16.000000,-1.120212,0.629444,0.054048,0.729398,0.728663,0.009461,1.000000,0.000000,-6795364572.111345,0.059500,-0.313086,-1.117113,0.000000,3.956368,0.000000,-5.851113,388.451447,0.199615,0.000000,0.265000,0.678038,4.050397,0.687872,0.385296,-0.290601,-6795364572.101345,0.070138,0.070414,-0.035548,10.320332,17.950017,-0.024264,0.259000,-3.046129,0.163803,-5.085964,-2.457184
3.141593,8.808704,-0.811284,-0.896094,0.000000,0.000000,441.537872,-0.017011,0.000000,0.000000,-1.509377,5.618776,10.000000,-0.306966,0.895953,0.056542,0.704843,10.913840,0.677405,-1.305416,1.000000,1.000000,0.000004,0.000000,0.059743,-0.145787,7.400000,5.721267,-6795364572.101345,0.259000,0.054048,0.047446,-6795364572.011345,4.604597,16.000000,-1.119663,0.623086,0.054048,0.730100,0.729350,0.010254,1.000000,0.000000,-6795364572.061345,0.061878,-0.313209,-1.117113,0.000000,4.104654,0.000000,-5.841741,388.451447,0.199615,0.000000,0.259000,0.676753,4.201085,0.687870,0.361136,-0.291073,-6795364572.101345,0.073089,0.073417,-0.035548,10.758664,17.981536,-0.024264,0.259000,-3.046129,0.163812,-5.085964,-1.722716
3.141593,8.830772,-0.816370,-0.895596,0.000000,0.000000,441.537872,-0.017011,0.000000,0.000000,-1.588002,5.623950,10.000000,-0.306966,0.895896,0.056283,0.704863,11.335197,0.676161,-1.382073,1.000000,1.000000,0.000003,0.000000,0.062116,-0.146419,7.400000,5.721267,-6795364572.101345,0.622000,0.065407,0.045900,-6795364571.961345,4.616565,16.000000,-1.118748,0.644704,0.065407,0.730773,0.730007,0.008789,1.000000,0.000000,-6795364572.011345,0.064201,-0.313190,-1.117113,0.000000,4.248681,0.000000,-5.846869,388.123383,0.199615,0.000000,0.259000,0.675484,4.347406,0.687868,0.366222,-0.290182,-6795364572.001345,0.075986,0.076378,-0.031994,11.188909,17.961462,-0.017011,0.622000,-3.046129,0.163824,-5.085964,-1.722716
3.141593,8.830382,-0.851975,-0.895549,0.000000,0.000000,441.557312,-0.014419,0.000000,0.000000,-1.665912,5.650453,10.000000,-0.306966,0.895860,0.056452,0.704850,11.749812,0.674935,-1.458468,1.000000,1.000000,0.000001,0.000000,0.064448,-0.146282,7.400000,5.721267,-6795364572.001345,0.622000,0.065407,0.047609,-6795364571.911345,4.605092,16.000000,-1.119297,0.623086,0.065407,0.731416,0.730635,0.009359,1.000000,0.000000,-6795364571.961345,0.066486,-0.313322,-1.117113,0.000000,4.388647,0.000000,-5.850379,388.123383,0.199615,0.000000,0.622000,0.674234,4.489640,0.687829,0.368765,-0.290983,-6795364572.001345,0.078836,0.079283,-0.031994,11.611312,17.988500,-0.017011,0.622000,-3.046129,0.163984,-5.085964,-1.460175
3.141593,8.833731,-0.820185,-0.896445,0.000000,0.000000,441.557312,-0.014419,0.000000,0.000000,-1.743443,5.639352,10.000000,-0.306966,0.895956,0.056335,0.704859,12.155143,0.673734,-1.534367,1.000000,1.000000,0.000000,0.000000,0.066729,-0.146483,7.400000,5.721267,-6795364572.001345,0.394000,0.071979,0.046327,-6795364571.861345,4.597077,16.000000,-1.120579,0.610370,0.071979,0.732025,0.731231,0.009217,1.000000,0.000000,-6795364571.911345,0.068718,-0.313322,-1.117113,0.000000,4.523590,0.000000,-5.830950,388.451447,0.199615,0.000000,0.622000,0.673009,4.626682,0.687847,0.347148,-0.290690,-6795364571.901345,0.081624,0.082130,-0.028794,12.025125,17.972947,-0.014419,0.394000,-3.046129,0.163911,-5.085964,-1.460175
3.141593,8.863948,-0.839259,-0.896068,0.000000,0.000000,441.557312,-0.014136,0.000000,0.000000,-1.821774,5.649399,10.000000,-0.306966,0.895951,0.056039,0.704883,12.552405,0.672554,-1.610466,1.000000,1.000000,0.000002,0.000000,0.068957,-0.147109,7.400000,5.721267,-6795364571.901345,0.394000,0.071979,0.045981,-6795364571.811345,4.613489,16.000000,-1.119541,0.635802,0.071979,0.732604,0.731797,0.008098,1.000000,0.000000,-6795364571.861345,0.070900,-0.313300,-1.117113,0.000000,4.654080,0.000000,-5.826116,388.451447,0.199615,0.000000,0.394000,0.671806,4.759204,0.687829,0.338247,-0.290239,-6795364571.901345,0.084363,0.084931,-0.028794,12.430714,17.955000,-0.014419,0.394000,-3.046129,0.163984,-5.085964,-1.431544
3.141593,8.855192,-0.820185,-0.895066,0.000000,0.000000,441.557312,-0.014136,0.000000,0.000000,-1.899613,5.639626,10.000000,-0.306966,0.895820,0.055997,0.704886,12.940788,0.671396,-1.686848,1.000000,1.000000,0.000000,0.000000,0.071131,-0.146504,7.400000,5.721267,-6795364571.901345,0.308000,0.076699,0.045717,-6795364571.761345,4.617168,16.000000,-1.117710,0.633259,0.076699,0.733155,0.732337,0.009156,1.000000,0.000000,-6795364571.811345,0.073027,-0.313257,-1.117113,0.000000,4.780336,0.000000,-5.820243,388.779541,0.199615,0.000000,0.394000,0.670625,4.887379,0.687864,0.335704,-0.289663,-6795364571.801345,0.087048,0.087671,-0.025915,12.827242,17.939413,-0.014136,0.308000,-3.046129,0.163838,-5.085964,-1.431544
3.141593,8.847933,-0.816370,-0.895489,0.000000,0.000000,441.625366,-0.005953,0.000000,0.000000,-1.978427,5.628890,10.000000,-0.306966,0.895805,0.056065,0.704881,13.320783,0.670249,-1.764138,1.000000,1.000000,0.000000,0.000000,0.073247,-0.146472,7.400000,5.721267,-6795364571.801345,0.308000,0.076699,0.046225,-6795364571.711345,4.628362,16.000000,-1.119134,0.658691,0.076699,0.733689,0.732860,0.009115,1.000000,0.000000,-6795364571.761345,0.075097,-0.313260,-1.117113,0.000000,4.903959,0.000000,-5.848051,388.779541,0.199615,0.000000,0.308000,0.669456,5.012909,0.687869,0.373852,-0.290007,-6795364571.801345,0.089685,0.090361,-0.025915,13.214795,17.943142,-0.014136,0.308000,-3.046129,0.163817,-5.085964,-0.602804
3.141593,8.863852,-0.804926,-0.896154,0.000000,0.000000,441.625366,-0.005953,0.000000,0.000000,-2.056384,5.622751,10.000000,-0.306966,0.895868,0.055750,0.704906,13.692082,0.669129,-1.840067,1.000000,1.000000,0.000002,0.000000,0.075317,-0.146973,7.400000,5.721267,-6795364571.801345,0.424000,0.083645,0.044679,-6795364571.661345,4.615773,16.000000,-1.119785,0.625629,0.083645,0.734192,0.733353,0.008423,1.000000,0.000000,-6795364571.711345,0.077121,-0.313124,-1.117113,0.000000,5.022972,0.000000,-5.826152,388.451447,0.199615,0.000000,0.308000,0.668312,5.133684,0.687897,0.339518,-0.289325,-6795364571.701345,0.092260,0.092995,-0.023323,13.594263,17.907899,-0.005953,0.424000,-3.046129,0.163701,-5.085964,-0.602804
3.141593,8.872827,-0.836716,-0.895999,0.000000,0.000000,441.625366,-0.005836,0.000000,0.000000,-2.133184,5.639515,10.000000,-0.306966,0.895875,0.055955,0.704889,14.057506,0.668021,-1.915026,1.000000,1.000000,359.999999,0.000000,0.077347,-0.147111,7.400000,5.721267,-6795364571.701345,0.424000,0.083645,0.047202,-6795364571.611345,4.599233,16.000000,-1.119867,0.615457,0.083645,0.734678,0.733828,0.008342,1.000000,0.000000,-6795364571.661345,0.079116,-0.313229,-1.117113,0.000000,5.139242,0.000000,-5.842648,388.451447,0.199615,0.000000,0.424000,0.667181,5.251801,0.687823,0.371309,-0.290582,-6795364571.701345,0.094791,0.095574,-0.023323,13.966120,17.950276,-0.005953,0.424000,-3.046129,0.164009,-5.085964,-0.590984
3.141593,8.862972,-0.804926,-0.895595,0.000000,0.000000,441.625366,-0.005836,0.000000,0.000000,-2.210555,5.625217,10.000000,-0.306966,0.895829,0.056114,0.704877,14.415166,0.666937,-1.990891,1.000000,1.000000,0.000000,0.000000,0.079329,-0.146747,7.400000,5.721267,-6795364571.701345,0.273000,0.087433,0.046693,-6795364571.561345,4.622483,16.000000,-1.118992,0.648518,0.087433,0.735136,0.734276,0.008911,1.000000,0.000000,-6795364571.611345,0.081057,-0.313278,-1.117113,0.000000,5.250995,0.000000,-5.828715,387.795288,0.199615,0.000000,0.424000,0.666076,5.365252,0.687815,0.339518,-0.290529,-6795364571.601345,0.097280,0.098111,-0.020991,14.330632,17.966159,-0.005836,0.273000,-3.046129,0.164045,-5.085964,-0.590984
3.141593,8.875279,-0.813827,-0.896335,0.000000,0.000000,441.528168,-0.017016,0.000000,0.000000,-2.288111,5.624882,10.000000,-0.306966,0.895912,0.055777,0.704903,14.764683,0.665869,-2.066423,1.000000,1.000000,0.000002,0.000000,0.081265,-0.147179,7.400000,5.721267,-6795364571.601345,0.273000,0.087433,0.044801,-6795364571.511345,4.625921,16.000000,-1.120111,0.648518,0.087433,0.735574,0.734707,0.008260,1.000000,0.000000,-6795364571.561345,0.082950,-0.313151,-1.117113,0.000000,5.359787,0.000000,-5.838281,387.795288,0.199615,0.000000,0.273000,0.664986,5.475587,0.687858,0.358592,-0.289603,-6795364571.601345,0.099717,0.100605,-0.020991,14.688026,17.923707,-0.005836,0.273000,-3.046129,0.163864,-5.085964,-1.723211
3.141593,8.854078,-0.801111,-0.896512,0.000000,0.000000,441.528168,-0.017016,0.000000,0.000000,-2.364531,5.614304,10.000000,-0.306966,0.895979,0.055847,0.704898,15.106341,0.664817,-2.141529,1.000000,1.000000,360.000000,0.000000,0.083154,-0.146613,7.400000,5.721267,-6795364571.601345,0.307000,0.091824,0.045534,-6795364571.461345,4.613115,16.000000,-1.120029,0.633259,0.091824,0.735996,0.735121,0.009400,1.000000,0.000000,-6795364571.511345,0.084796,-0.313097,-1.117113,0.000000,5.465944,0.000000,-5.849538,387.467194,0.199615,0.000000,0.273000,0.663911,5.583283,0.687902,0.377667,-0.289733,-6795364571.501345,0.102102,0.103038,-0.018892,15.036758,17.913915,-0.017016,0.307000,-3.046129,0.163678,-5.085964,-1.723211
3.141593,8.872290,-0.788395,-0.896223,0.000000,0.000000,441.540039,-0.015302,0.000000,0.000000,-2.440807,5.605711,10.000000,-0.306966,0.895991,0.055917,0.704892,15.441311,0.663789,-2.215703,1.000000,1.000000,359.999998,0.000000,0.084995,-0.147195,7.400000,5.721267,-6795364571.501345,0.307000,0.091824,0.046714,-6795364571.411345,4.614697,16.000000,-1.119989,0.633259,0.091824,0.736394,0.735511,0.008057,1.000000,0.000000,-6795364571.461345,0.086605,-0.313162,-1.117113,0.000000,5.567910,0.000000,-5.831949,387.467194,0.199615,0.000000,0.307000,0.662862,5.686800,0.687834,0.348420,-0.290444,-6795364571.501345,0.104442,0.105424,-0.018892,15.377797,17.943528,-0.017016,0.307000,-3.046129,0.163965,-5.085964,-1.549623
3.141593,8.885703,-0.808741,-0.895973,0.000000,0.000000,441.540039,-0.015302,0.000000,0.000000,-2.516779,5.614647,10.000000,-0.306966,0.895979,0.056061,0.704881,15.770675,0.662775,-2.289669,1.000000,1.000000,359.999998,0.000000,0.086801,-0.147379,7.400000,5.721267,-6795364571.501345,0.249000,0.094967,0.047426,-6795364571.361345,4.622170,16.000000,-1.119907,0.648518,0.094967,0.736774,0.735883,0.007996,1.000000,0.000000,-6795364571.411345,0.088380,-0.313285,-1.117113,0.000000,5.667087,0.000000,-5.843721,386.811035,0.199615,0.000000,0.307000,0.661827,5.787485,0.687762,0.366222,-0.291053,-6795364571.391345,0.106745,0.107771,-0.017003,15.712973,17.980355,-0.015302,0.249000,-3.046129,0.164267,-5.085964,-1.549623
3.141593,8.906453,-0.796024,-0.896319,0.000000,0.000000,441.520599,-0.017261,0.000000,0.000000,-2.591783,5.610334,10.000000,-0.306966,0.896028,0.055748,0.704906,16.092578,0.661783,-2.362464,1.000000,1.000000,0.000002,0.000000,0.088573,-0.147789,7.400000,5.721267,-6795364571.391345,0.249000,0.094967,0.045452,-6795364571.311345,4.619904,16.000000,-1.120192,0.638345,0.094967,0.737133,0.736235,0.007528,1.000000,0.000000,-6795364571.361345,0.090115,-0.313219,-1.117113,0.000000,5.762869,0.000000,-5.835424,386.811035,0.199615,0.000000,0.249000,0.660813,5.884575,0.687775,0.353506,-0.290147,-6795364571.391345,0.108996,0.110075,-0.017003,16.041930,17.950194,-0.015302,0.249000,-3.046129,0.164211,-5.085964,-1.748001
3.141593,8.912468,-0.827815,-0.894931,0.000000,0.000000,441.520599,-0.017261,0.000000,0.000000,-2.666136,5.630941,10.000000,-0.306966,0.895858,0.055664,0.704912,16.408818,0.660808,-2.434924,1.000000,1.000000,0.000001,0.000000,0.090309,-0.147557,7.400000,5.721267,-6795364571.391345,0.062000,0.094308,0.045900,-6795364571.261345,4.626562,16.000000,-1.117649,0.648518,0.094308,0.737473,0.736570,0.007691,1.000000,0.000000,-6795364571.311345,0.091815,-0.313208,-1.117113,0.000000,5.855648,0.000000,-5.836881,386.154846,0.199615,0.000000,0.249000,0.659817,5.978642,0.687778,0.350963,-0.289731,-6795364571.291345,0.111211,0.112337,-0.015302,16.364660,17.942507,-0.017261,0.062000,-3.046129,0.164200,-5.085964,-1.748001
3.141593,8.889835,-0.824000,-0.894723,0.000000,0.000000,441.520599,-0.016923,0.000000,0.000000,-2.739524,5.634229,10.000000,-0.306966,0.895736,0.055776,0.704904,16.718689,0.659849,-2.507012,1.000000,1.000000,360.000000,0.000000,0.092009,-0.146933,7.400000,5.721267,-6795364571.291345,0.062000,0.094308,0.045859,-6795364571.211345,4.620750,16.000000,-1.117832,0.638345,0.094308,0.737797,0.736889,0.008667,1.000000,0.000000,-6795364571.261345,0.093477,-0.313190,-1.117113,0.000000,5.945677,0.000000,-5.838389,386.154846,0.199615,0.000000,0.062000,0.658838,6.069907,0.687816,0.356049,-0.289612,-6795364571.291345,0.113384,0.114553,-0.015302,16.680859,17.938092,-0.017261,0.062000,-3.046129,0.164038,-5.085964,-1.713726
3.141593,8.854958,-0.789666,-0.895642,0.000000,0.000000,441.520599,-0.016923,0.000000,0.000000,-2.812179,5.612514,10.000000,-0.306966,0.895766,0.055930,0.704891,17.020992,0.658911,-2.578615,1.000000,1.000000,359.999999,0.000000,0.093665,-0.146399,7.400000,5.721267,-6795364571.291345,0.399000,0.100402,0.045656,-6795364571.161345,4.611366,16.000000,-1.119358,0.625629,0.100402,0.738104,0.737191,0.009522,1.000000,0.000000,-6795364571.211345,0.095093,-0.313145,-1.117113,0.000000,6.032590,0.000000,-5.829052,386.482971,0.199615,0.000000,0.062000,0.657880,6.157989,0.687880,0.350963,-0.289700,-6795364571.191345,0.115510,0.116720,-0.013772,16.989464,17.928282,-0.016923,0.399000,-3.046129,0.163770,-5.085964,-1.713726
3.141593,8.867087,-0.796024,-0.894839,0.000000,0.000000,441.648071,-0.001782,0.000000,0.000000,-2.886508,5.608201,10.000000,-0.306966,0.895639,0.055861,0.704897,17.316982,0.657988,-2.650900,1.000000,1.000000,360.000000,0.000000,0.095268,-0.146815,7.400000,5.721267,-6795364571.191345,0.399000,0.100402,0.045778,-6795364571.111345,4.641940,16.000000,-1.117710,0.676494,0.100402,0.738398,0.737480,0.008260,1.000000,0.000000,-6795364571.161345,0.096665,-0.313128,-1.117113,0.000000,6.116809,0.000000,-5.839688,386.482971,0.199615,0.000000,0.399000,0.656937,6.243353,0.687862,0.356049,-0.289537,-6795364571.191345,0.117603,0.118857,-0.013772,17.291349,17.929249,-0.016923,0.399000,-3.046129,0.163849,-5.085964,-0.180455
3.141593,8.877084,-0.793481,-0.895878,0.000000,0.000000,441.648071,-0.001782,0.000000,0.000000,-2.959150,5.602922,10.000000,-0.306966,0.895707,0.055596,0.704918,17.606004,0.657078,-2.721529,1.000000,1.000000,0.000001,0.000000,0.096840,-0.147098,7.400000,5.721267,-6795364571.191345,0.297000,0.104334,0.044496,-6795364571.061345,4.621655,16.000000,-1.119602,0.640889,0.104334,0.738682,0.737760,0.008362,1.000000,0.000000,-6795364571.111345,0.098202,-0.312990,-1.117113,0.000000,6.199468,0.000000,-5.855522,386.482971,0.199615,0.000000,0.399000,0.656006,6.327057,0.687895,0.385296,-0.289050,-6795364571.091345,0.119643,0.120944,-0.012395,17.586840,17.896189,-0.001782,0.297000,-3.046129,0.163710,-5.085964,-0.180455
3.141593,8.893148,-0.811284,-0.896087,0.000000,0.000000,441.648071,-0.001747,0.000000,0.000000,-3.031596,5.615507,10.000000,-0.306966,0.895754,0.055445,0.704930,17.889650,0.656186,-2.791858,1.000000,1.000000,0.000001,0.000000,0.098374,-0.147449,7.400000,5.721267,-6795364571.091345,0.297000,0.104334,0.044923,-6795364571.011345,4.638934,16.000000,-1.119622,0.668864,0.104334,0.738949,0.738024,0.007894,1.000000,0.000000,-6795364571.061345,0.099706,-0.312906,-1.117113,0.000000,6.279086,0.000000,-5.851431,386.482971,0.199615,0.000000,0.297000,0.655095,6.407709,0.687884,0.361136,-0.289153,-6795364571.091345,0.121649,0.122996,-0.012395,17.876329,17.887689,-0.001782,0.297000,-3.046129,0.163755,-5.085964,-0.176917
3.141593,8.823428,-0.820185,-0.896772,0.000000,0.000000,441.648071,-0.001747,0.000000,0.000000,-3.103130,5.627066,10.000000,-0.306966,0.895885,0.055795,0.704902,18.167799,0.655313,-2.863028,1.000000,1.000000,359.999997,0.000000,0.099877,-0.145756,7.400000,5.721267,-6795364571.091345,0.486000,0.111967,0.044679,-6795364570.961345,4.645853,16.000000,-1.120090,0.667592,0.111967,0.739199,0.738272,0.011048,1.000000,0.000000,-6795364571.011345,0.101169,-0.312792,-1.117113,0.000000,6.355632,0.000000,-5.841725,386.811035,0.199615,0.000000,0.297000,0.654203,6.485230,0.688002,0.347148,-0.289117,-6795364571.001345,0.123629,0.125009,-0.011155,18.160404,17.874750,-0.001747,0.486000,-3.046129,0.163259,-5.085964,-0.176917
3.141593,8.840685,-0.790938,-0.894384,0.000000,0.000000,441.618896,-0.005101,0.000000,0.000000,-3.175287,5.607629,10.000000,-0.306966,0.895633,0.056075,0.704880,18.440634,0.654454,-2.933119,1.000000,1.000000,359.999995,0.000000,0.101332,-0.146362,7.400000,5.721267,-6795364571.001345,0.486000,0.111967,0.047161,-6795364570.911345,4.642589,16.000000,-1.116652,0.666321,0.111967,0.739441,0.738508,0.008464,1.000000,0.000000,-6795364570.961345,0.102604,-0.312938,-1.117113,0.000000,6.430088,0.000000,-5.851176,386.811035,0.199615,0.000000,0.486000,0.653325,6.560777,0.687888,0.371309,-0.289989,-6795364571.001345,0.125570,0.126985,-0.011155,18.437376,17.937520,-0.001747,0.486000,-3.046129,0.163740,-5.085964,-0.516593
3.141593,8.819807,-0.820185,-0.896060,0.000000,0.000000,441.618896,-0.005101,0.000000,0.000000,-3.245097,5.624155,10.000000,-0.306966,0.895747,0.056191,0.704871,18.708671,0.653611,-3.001603,1.000000,1.000000,359.999998,0.000000,0.102776,-0.145985,7.400000,5.721267,-6795364571.001345,0.186000,0.113448,0.045778,-6795364570.861345,4.618370,16.000000,-1.120212,0.629444,0.113448,0.739666,0.738731,0.010071,1.000000,0.000000,-6795364570.911345,0.104017,-0.312924,-1.117113,0.000000,6.502234,0.000000,-5.844826,386.811035,0.199615,0.000000,0.486000,0.652464,6.633835,0.687920,0.362407,-0.290018,-6795364570.901345,0.127473,0.128925,-0.010040,18.710857,17.935513,-0.005101,0.186000,-3.046129,0.163602,-5.085964,-0.516593
3.141593,8.817365,-0.797296,-0.895271,0.000000,0.000000,441.550842,-0.012908,0.000000,0.000000,-3.251643,5.613203,10.000000,-0.306966,0.895666,0.056181,0.704871,18.917796,0.653176,-3.007799,1.000000,1.000000,359.999999,0.000000,0.104151,-0.145944,7.400000,5.721267,-6795364570.901345,0.186000,0.113448,0.045778,-6795364570.821345,4.613680,16.000000,-1.118015,0.633259,0.113448,0.739651,0.738717,0.009583,1.000000,0.000000,-6795364570.861345,0.105363,-0.312921,-1.117113,0.000000,6.532343,0.000000,-5.840898,386.811035,0.199615,0.000000,0.186000,0.652019,6.664100,0.687929,0.362407,-0.289680,-6795364570.901345,0.128678,0.130155,-0.010040,18.924370,17.931572,-0.005101,0.186000,-3.046129,0.163564,-5.085964,-1.307134
3.141593,8.826113,-0.808741,-0.895944,0.000000,0.000000,441.550842,-0.012908,0.000000,0.000000,-3.384147,5.615758,10.000000,-0.306966,0.895723,0.056075,0.704880,19.228390,0.651965,-3.137004,1.000000,1.000000,0.000000,0.000000,0.105562,-0.146273,7.400000,5.721267,-6795364570.901345,0.494000,0.121059,0.045574,-6795364570.761345,4.612640,16.000000,-1.119622,0.638345,0.121059,0.740089,0.739149,0.009278,1.000000,0.000000,-6795364570.821345,0.106745,-0.312896,-1.117113,0.000000,6.640850,0.000000,-5.853005,386.811035,0.199615,0.000000,0.186000,0.650780,6.774140,0.687929,0.378938,-0.289716,-6795364570.801345,0.131172,0.132704,-0.009036,19.241262,17.922996,-0.012908,0.494000,-3.046129,0.163565,-5.085964,-1.307134
3.141593,8.859051,-0.803654,-0.896191,0.000000,0.000000,441.531403,-0.014913,0.000000,0.000000,-3.452358,5.612666,10.000000,-0.306966,0.895780,0.055988,0.704887,19.480034,0.651167,-3.202834,1.000000,1.000000,359.999998,0.000000,0.106903,-0.147068,7.400000,5.721267,-6795364570.801345,0.494000,0.121059,0.046470,-6795364570.711345,4.626532,16.000000,-1.120151,0.658691,0.121059,0.740283,0.739340,0.008138,1.000000,0.000000,-6795364570.761345,0.108066,-0.312958,-1.117113,0.000000,6.706704,0.000000,-5.858060,386.811035,0.199615,0.000000,0.494000,0.649964,6.840819,0.687855,0.376395,-0.290324,-6795364570.801345,0.132963,0.134533,-0.009036,19.497532,17.941820,-0.012908,0.494000,-3.046129,0.163876,-5.085964,-1.510267
3.141593,8.866463,-0.797296,-0.896125,0.000000,0.000000,441.531403,-0.014913,0.000000,0.000000,-3.518625,5.609079,10.000000,-0.306966,0.895812,0.055795,0.704902,19.725932,0.650389,-3.267221,1.000000,1.000000,360.000000,0.000000,0.108223,-0.146963,7.400000,5.721267,-6795364570.801345,0.494000,0.121059,0.045045,-6795364570.661345,4.620570,16.000000,-1.119419,0.640889,0.121059,0.740463,0.739519,0.008667,1.000000,0.000000,-6795364570.711345,0.109357,-0.312885,-1.117113,0.000000,6.770155,0.000000,-5.848800,386.811035,0.199615,0.000000,0.494000,0.649167,6.904961,0.687879,0.366222,-0.289573,-6795364570.801345,0.134711,0.136322,-0.009036,19.748867,17.917906,-0.014913,0.494000,-3.046129,0.163777,-5.085964,-1.510267
3.141593,8.887764,-0.811284,-0.895767,0.000000,0.000000,441.494659,-0.018888,0.000000,0.000000,-3.583763,5.617069,10.000000,-0.306966,0.895792,0.055757,0.704905,19.967548,0.649625,-3.330266,1.000000,1.000000,359.999999,0.000000,0.109515,-0.147389,7.400000,5.721267,-6795364570.801345,0.494000,0.121059,0.046225,-6795364570.611345,4.617839,16.000000,-1.119297,0.640889,0.121059,0.740634,0.739687,0.007813,1.000000,0.000000,-6795364570.661345,0.110628,-0.312931,-1.117113,0.000000,6.831673,0.000000,-5.851068,386.811035,0.199615,0.000000,0.494000,0.648386,6.967215,0.687827,0.371309,-0.290006,-6795364570.801345,0.136426,0.138073,-0.009036,19.995006,17.932980,-0.014913,0.494000,-3.046129,0.163995,-5.085964,-1.912761
3.141593,8.876919,-0.824000,-0.895361,0.000000,0.000000,441.531403,-0.014913,0.000000,0.000000,-3.646246,5.632209,10.000000,-0.306966,0.895731,0.056065,0.704881,20.205840,0.648879,-3.391399,1.000000,1.000000,0.000001,0.000000,0.110795,-0.146949,7.400000,5.721267,-6795364570.801345,0.425000,0.127138,0.047365,-6795364570.561345,4.595751,16.000000,-1.118931,0.602741,0.127138,0.740788,0.739840,0.008667,1.000000,0.000000,-6795364570.611345,0.111886,-0.313072,-1.117113,0.000000,6.890512,0.000000,-5.830216,388.123383,0.199615,0.000000,0.494000,0.647624,7.026808,0.687786,0.347148,-0.290732,-6795364570.581345,0.138110,0.139786,-0.008132,20.237287,17.972264,-0.018888,0.425000,-3.046129,0.164166,-5.085964,-1.510267
3.141593,8.874614,-0.813827,-0.895533,0.000000,0.000000,441.494659,-0.014621,0.000000,0.000000,-3.708745,5.627832,10.000000,-0.306966,0.895719,0.055976,0.704888,20.438734,0.648149,-3.452290,1.000000,1.000000,0.000000,0.000000,0.112046,-0.146966,7.400000,5.721267,-6795364570.581345,0.425000,0.127138,0.045818,-6795364570.511345,4.606356,16.000000,-1.119053,0.630716,0.127138,0.740933,0.739984,0.008504,1.000000,0.000000,-6795364570.561345,0.113110,-0.313060,-1.117113,0.000000,6.947444,0.000000,-5.833785,388.123383,0.199615,0.000000,0.425000,0.646877,7.084325,0.687813,0.356049,-0.290082,-6795364570.581345,0.139761,0.141474,-0.008132,20.475231,17.955427,-0.014913,0.425000,-3.046129,0.164051,-5.085964,-1.480654
3.141593,8.854271,-0.820185,-0.895593,0.000000,0.000000,441.494659,-0.014621,0.000000,0.000000,-3.706190,5.631811,10.000000,-0.306966,0.895709,0.056081,0.704879,20.614151,0.647825,-3.449935,1.000000,1.000000,360.000000,0.000000,0.113241,-0.146506,7.400000,5.721267,-6795364570.581345,0.376000,0.132115,0.046266,-6795364570.471345,4.593466,16.000000,-1.119053,0.606555,0.132115,0.740852,0.739906,0.009278,1.000000,0.000000,-6795364570.511345,0.114278,-0.313085,-1.117113,0.000000,6.964799,0.000000,-5.830350,388.779541,0.199615,0.000000,0.425000,0.646546,7.101636,0.687847,0.354778,-0.290143,-6795364570.491345,0.140721,0.142451,-0.007319,20.654380,17.952093,-0.014621,0.376000,-3.046129,0.163909,-5.085964,-1.480654
3.141593,8.849883,-0.836716,-0.896276,0.000000,0.000000,441.523834,-0.010946,0.000000,0.000000,-3.833499,5.642198,10.000000,-0.306966,0.895795,0.056206,0.704869,20.892662,0.646719,-3.574304,1.000000,1.000000,0.000000,0.000000,0.114465,-0.146679,7.400000,5.721267,-6795364570.491345,0.376000,0.132115,0.046958,-6795364570.411345,4.620177,16.000000,-1.120477,0.653605,0.132115,0.741201,0.740251,0.008952,1.000000,0.000000,-6795364570.471345,0.115479,-0.313167,-1.117113,0.000000,7.056689,0.000000,-5.844113,388.779541,0.199615,0.000000,0.376000,0.645414,7.194777,0.687831,0.361136,-0.290784,-6795364570.491345,0.142997,0.144773,-0.007319,20.938076,17.968060,-0.014621,0.376000,-3.046129,0.163978,-5.085964,-1.108478
3.141593,8.809818,-0.797296,-0.896190,0.000000,0.000000,441.523834,-0.010946,0.000000,0.000000,-3.894442,5.618179,10.000000,-0.306966,0.895831,0.056361,0.704857,21.110996,0.646029,-3.634440,1.000000,1.000000,359.999998,0.000000,0.115626,-0.145710,7.400000,5.721267,-6795364570.491345,0.267000,0.134813,0.046022,-6795364570.361345,4.613514,16.000000,-1.119419,0.633259,0.134813,0.741322,0.740372,0.010559,1.000000,0.000000,-6795364570.411345,0.116611,-0.313153,-1.117113,0.000000,7.108415,0.000000,-5.843221,389.107605,0.199615,0.000000,0.376000,0.644708,7.247027,0.687909,0.366222,-0.290272,-6795364570.391345,0.144561,0.146366,-0.006587,21.161169,17.953234,-0.010946,0.267000,-3.046129,0.163649,-5.085964,-1.108478
3.141593,8.837893,-0.818913,-0.895863,0.000000,0.000000,441.524902,-0.010606,0.000000,0.000000,-3.956210,5.625587,10.000000,-0.306966,0.895820,0.056099,0.704878,21.324990,0.645352,-3.693989,1.000000,1.000000,0.000001,0.000000,0.116753,-0.146609,7.400000,5.721267,-6795364570.391345,0.267000,0.134813,0.045737,-6795364570.311345,4.631341,16.000000,-1.119175,0.661234,0.134813,0.741436,0.740486,0.008504,1.000000,0.000000,-6795364570.361345,0.117716,-0.313124,-1.117113,0.000000,7.158354,0.000000,-5.847253,389.107605,0.199615,0.000000,0.267000,0.644015,7.297410,0.687890,0.361136,-0.289916,-6795364570.391345,0.146096,0.147939,-0.006587,21.379766,17.938668,-0.010946,0.267000,-3.046129,0.163730,-5.085964,-1.074034
3.141593,8.859355,-0.755333,-0.894775,0.000000,0.000000,441.524902,-0.010606,0.000000,0.000000,-4.015661,5.587626,10.000000,-0.306966,0.895669,0.055816,0.704900,21.532360,0.644701,-3.751390,1.000000,1.000000,0.000002,0.000000,0.117847,-0.146720,7.400000,5.721267,-6795364570.391345,0.343000,0.138976,0.044984,-6795364570.261345,4.625099,16.000000,-1.117222,0.637074,0.138976,0.741537,0.740587,0.008484,1.000000,0.000000,-6795364570.311345,0.118789,-0.313038,-1.117113,0.000000,7.205552,0.000000,-5.819573,389.107605,0.199615,0.000000,0.267000,0.643348,7.344985,0.687894,0.335704,-0.289069,-6795364570.301345,0.147582,0.149462,-0.005928,21.591825,17.914216,-0.010606,0.343000,-3.046129,0.163712,-5.085964,-1.074034
3.141593,8.900125,-0.818913,-0.895928,0.000000,0.000000,441.524902,-0.010398,0.000000,0.000000,-4.073526,5.616800,10.000000,-0.306966,0.895744,0.055642,0.704914,21.737161,0.644056,-3.806898,1.000000,1.000000,359.999999,0.000000,0.118930,-0.147758,7.400000,5.721267,-6795364570.301345,0.351000,0.143217,0.046063,-6795364570.211345,4.613274,16.000000,-1.120355,0.630716,0.143217,0.741635,0.740685,0.007243,1.000000,0.000000,-6795364570.261345,0.119857,-0.313053,-1.117113,0.000000,7.252226,0.000000,-5.837964,389.107605,0.199615,0.000000,0.343000,0.642687,7.392099,0.687818,0.366222,-0.289928,-6795364570.211345,0.149040,0.150954,-0.005336,21.800472,17.926608,-0.010606,0.351000,-3.046129,0.164031,-5.085964,-1.052974
3.141593,8.882225,-0.808741,-0.896228,0.000000,0.000000,441.524902,-0.010398,0.000000,0.000000,-4.065342,5.619843,10.000000,-0.306966,0.895805,0.055625,0.704916,21.884926,0.643819,-3.798968,1.000000,1.000000,359.999998,0.000000,0.119967,-0.147054,7.400000,5.721267,-6795364570.211345,0.351000,0.143217,0.044923,-6795364570.171345,4.621998,16.000000,-1.119663,0.644704,0.143217,0.741517,0.740570,0.008911,1.000000,0.000000,-6795364570.211345,0.120868,-0.312958,-1.117113,0.000000,7.260756,0.000000,-5.834678,389.107605,0.199615,0.000000,0.351000,0.642445,7.400412,0.687873,0.350963,-0.289423,-6795364570.211345,0.149811,0.151742,-0.005336,21.951782,17.905906,-0.010398,0.351000,-3.046129,0.163799,-5.085964,-1.052974
3.141593,8.885820,-0.811284,-0.896796,0.000000,0.000000,441.524902,-0.010194,0.000000,0.000000,-4.121954,5.622899,10.000000,-0.306966,0.895929,0.055588,0.704918,22.082433,0.643194,-3.853988,1.000000,1.000000,359.999999,0.000000,0.121008,-0.147367,7.400000,5.721267,-6795364570.211345,0.351000,0.143217,0.045371,-6795364570.121345,4.609552,16.000000,-1.120762,0.623086,0.143217,0.741605,0.740659,0.008179,1.000000,0.000000,-6795364570.171345,0.121889,-0.312912,-1.117113,0.000000,7.305054,0.000000,-5.831736,389.107605,0.199615,0.000000,0.351000,0.641805,7.445104,0.687872,0.353506,-0.289701,-6795364570.211345,0.151224,0.153186,-0.005336,22.153339,17.903551,-0.010398,0.351000,-3.046129,0.163807,-5.085964,-1.032328
3.141593,8.875209,-0.804926,-0.897731,0.000000,0.000000,441.524902,-0.010194,0.000000,0.000000,-4.177606,5.619521,10.000000,-0.306966,0.896149,0.055763,0.704905,22.276111,0.642583,-3.908394,1.000000,1.000000,0.000001,0.000000,0.122026,-0.147261,7.400000,5.721267,-6795364570.211345,0.291000,0.146173,0.046144,-6795364570.071345,4.610582,16.000000,-1.122227,0.629444,0.146173,0.741685,0.740739,0.008728,1.000000,0.000000,-6795364570.121345,0.122888,-0.312932,-1.117113,0.000000,7.347697,0.000000,-5.829567,389.107605,0.199615,0.000000,0.351000,0.641180,7.488175,0.687861,0.350963,-0.290460,-6795364570.111345,0.152613,0.154600,-0.004802,22.350580,17.921318,-0.010194,0.291000,-3.046129,0.163850,-5.085964,-1.032328
3.141593,8.918665,-0.826543,-0.896928,0.000000,0.000000,441.429840,-0.021038,0.000000,0.000000,-4.168604,5.631334,10.000000,-0.306966,0.896192,0.055438,0.704930,22.413571,0.642377,-3.898431,1.000000,1.000000,0.000002,0.000000,0.122994,-0.148235,7.400000,5.721267,-6795364570.111345,0.291000,0.146173,0.045167,-6795364570.031345,4.628745,16.000000,-1.120396,0.658691,0.146173,0.741558,0.740615,0.006755,1.000000,0.000000,-6795364570.071345,0.123841,-0.312879,-1.117113,0.000000,7.353489,0.000000,-5.843599,389.107605,0.199615,0.000000,0.291000,0.640967,7.493685,0.687813,0.361136,-0.289838,-6795364570.111345,0.153314,0.155323,-0.004802,22.491082,17.911989,-0.010194,0.291000,-3.046129,0.164055,-5.085964,-2.130480
3.141593,8.895354,-0.816370,-0.896436,0.000000,0.000000,441.429840,-0.021038,0.000000,0.000000,-4.224573,5.627674,10.000000,-0.306966,0.896196,0.055629,0.704915,22.600920,0.641779,-3.953394,1.000000,1.000000,0.000001,0.000000,0.123968,-0.147292,7.400000,5.721267,-6795364570.111345,0.351000,0.150269,0.045839,-6795364569.981345,4.634817,16.000000,-1.119785,0.659963,0.150269,0.741634,0.740691,0.008728,1.000000,0.000000,-6795364570.031345,0.124794,-0.312884,-1.117113,0.000000,7.394530,0.000000,-5.847678,389.435699,0.199615,0.000000,0.291000,0.640356,7.535116,0.687835,0.362407,-0.289940,-6795364570.021345,0.154670,0.156704,-0.004322,22.682091,17.919776,-0.021038,0.351000,-3.046129,0.163961,-5.085964,-2.130480
3.141593,8.879644,-0.785852,-0.895648,0.000000,0.000000,441.460083,-0.017111,0.000000,0.000000,-4.279254,5.608179,10.000000,-0.306966,0.896107,0.055777,0.704903,22.783688,0.641199,-4.006944,1.000000,1.000000,0.000001,0.000000,0.124917,-0.146960,7.400000,5.721267,-6795364570.021345,0.351000,0.150269,0.045900,-6795364569.931345,4.623396,16.000000,-1.118686,0.635802,0.150269,0.741700,0.740759,0.008627,1.000000,0.000000,-6795364569.981345,0.125724,-0.312898,-1.117113,0.000000,7.433563,0.000000,-5.829862,389.435699,0.199615,0.000000,0.351000,0.639763,7.574500,0.687845,0.345876,-0.289833,-6795364570.021345,0.155992,0.158051,-0.004322,22.868411,17.928096,-0.021038,0.351000,-3.046129,0.163917,-5.085964,-1.732853
3.141593,8.885514,-0.831629,-0.895161,0.000000,0.000000,441.460083,-0.017111,0.000000,0.000000,-4.333816,5.632806,10.000000,-0.306966,0.895992,0.055896,0.704894,22.964442,0.640628,-4.059964,1.000000,1.000000,360.000000,0.000000,0.125851,-0.147161,7.400000,5.721267,-6795364570.021345,0.176000,0.150784,0.046693,-6795364569.881345,4.630185,16.000000,-1.118564,0.652333,0.150784,0.741761,0.740820,0.008057,1.000000,0.000000,-6795364569.931345,0.126643,-0.312986,-1.117113,0.000000,7.471382,0.000000,-5.836363,389.435699,0.199615,0.000000,0.351000,0.639178,7.612667,0.687801,0.350963,-0.290237,-6795364569.921345,0.157300,0.159384,-0.003890,23.052303,17.953363,-0.017111,0.176000,-3.046129,0.164104,-5.085964,-1.732853
3.141593,8.875544,-0.843074,-0.894729,0.000000,0.000000,441.460083,-0.017111,0.000000,0.000000,-4.321722,5.646263,10.000000,-0.306966,0.895847,0.055979,0.704887,23.089394,0.640460,-4.048108,1.000000,1.000000,0.000000,0.000000,0.126748,-0.146803,7.400000,5.721267,-6795364569.921345,0.176000,0.150784,0.046266,-6795364569.841345,4.620959,16.000000,-1.117832,0.640889,0.150784,0.741621,0.740683,0.008667,1.000000,0.000000,-6795364569.881345,0.127521,-0.313027,-1.117113,0.000000,7.473578,0.000000,-5.850269,389.435699,0.199615,0.000000,0.176000,0.639006,7.614620,0.687810,0.370037,-0.289997,-6795364569.921345,0.157921,0.160016,-0.003890,23.179824,17.956907,-0.017111,0.176000,-3.046129,0.164065,-5.085964,-1.732853
3.141593,8.857851,-0.793481,-0.895599,0.000000,0.000000,441.460083,-0.016776,0.000000,0.000000,-4.310597,5.617992,10.000000,-0.306966,0.895859,0.056186,0.704871,23.211092,0.640301,-4.037387,1.000000,1.000000,0.000001,0.000000,0.127614,-0.146610,7.400000,5.721267,-6795364569.921345,0.356000,0.154888,0.046999,-6795364569.801345,4.637886,16.000000,-1.119724,0.663778,0.154888,0.741478,0.740543,0.009095,1.000000,0.000000,-6795364569.841345,0.128370,-0.313120,-1.117113,0.000000,7.474682,0.000000,-5.837505,389.763794,0.199615,0.000000,0.176000,0.638844,7.615506,0.687813,0.347148,-0.290645,-6795364569.821345,0.158531,0.160635,-0.003501,23.303770,17.972765,-0.017111,0.356000,-3.046129,0.164054,-5.085964,-1.698876
3.141593,8.833032,-0.793481,-0.896430,0.000000,0.000000,441.335876,-0.030879,0.000000,0.000000,-4.299851,5.610865,10.000000,-0.306966,0.895952,0.056394,0.704854,23.330252,0.640149,-4.027176,1.000000,1.000000,0.000001,0.000000,0.128461,-0.146282,7.400000,5.721267,-6795364569.821345,0.249000,0.156770,0.047060,-6795364569.761345,4.634079,16.000000,-1.120640,0.648518,0.156770,0.741333,0.740402,0.009705,1.000000,0.000000,-6795364569.801345,0.129198,-0.313203,-1.117113,0.000000,7.475091,0.000000,-5.825812,389.763794,0.199615,0.000000,0.356000,0.638689,7.615680,0.687835,0.339518,-0.291018,-6795364569.751345,0.159131,0.161243,-0.003151,23.425277,17.981726,-0.016776,0.249000,-3.046129,0.163959,-5.085964,-3.127098
3.141593,8.784240,-0.785852,-0.896332,0.000000,0.000000,441.335876,-0.030879,0.000000,0.000000,-4.355438,5.606525,10.000000,-0.306966,0.895986,0.057116,0.704796,23.500749,0.639611,-4.082416,1.000000,1.000000,0.000013,0.000000,0.129310,-0.145349,7.400000,5.721267,-6795364569.751345,0.249000,0.156770,0.049684,-6795364569.711345,4.637890,16.000000,-1.120518,0.648518,0.156770,0.741379,0.740447,0.010987,1.000000,0.000000,-6795364569.761345,0.130033,-0.313509,-1.117113,0.000000,7.508374,0.000000,-5.803634,389.763794,0.199615,0.000000,0.249000,0.638141,7.649409,0.687807,0.312815,-0.292618,-6795364569.751345,0.160398,0.162521,-0.003151,23.597838,18.050429,-0.030879,0.249000,-3.046129,0.164079,-5.085964,-3.127098
3.141593,8.829534,-0.808741,-0.896721,0.000000,0.000000,441.365021,-0.026885,0.000000,0.000000,-4.411390,5.617726,10.000000,-0.306966,0.896076,0.056619,0.704836,23.667541,0.639081,-4.135887,1.000000,1.000000,0.000010,0.000000,0.130146,-0.146788,7.400000,5.721267,-6795364569.751345,0.249000,0.156770,0.046551,-6795364569.661345,4.635561,16.000000,-1.120884,0.651062,0.156770,0.741421,0.740491,0.008260,1.000000,0.000000,-6795364569.711345,0.130853,-0.313513,-1.117113,0.000000,7.541362,0.000000,-5.818775,389.763794,0.199615,0.000000,0.249000,0.637596,7.682465,0.687793,0.340790,-0.291357,-6795364569.751345,0.161632,0.163792,-0.003151,23.768744,18.014897,-0.030879,0.249000,-3.046129,0.164137,-5.085964,-2.722640
3.141593,8.853552,-0.801111,-0.896129,0.000000,0.000000,441.365021,-0.026885,0.000000,0.000000,-4.464496,5.617207,10.000000,-0.306966,0.896056,0.056321,0.704860,23.830380,0.638564,-4.187030,1.000000,1.000000,0.000005,0.000000,0.130969,-0.146926,7.400000,5.721267,-6795364569.751345,0.357000,0.160775,0.046632,-6795364569.611345,4.618640,16.000000,-1.119602,0.625629,0.160775,0.741460,0.740532,0.008545,1.000000,0.000000,-6795364569.661345,0.131661,-0.313528,-1.117113,0.000000,7.573432,0.000000,-5.814378,390.419952,0.199615,0.000000,0.249000,0.637065,7.714642,0.687794,0.335704,-0.290823,-6795364569.651345,0.162829,0.165021,-0.002836,23.935404,17.990414,-0.026885,0.357000,-3.046129,0.164134,-5.085964,-2.722640
3.141593,8.863841,-0.806197,-0.896104,0.000000,0.000000,441.365021,-0.026358,0.000000,0.000000,-4.516807,5.616924,10.000000,-0.306966,0.896060,0.056072,0.704880,23.989190,0.638053,-4.237667,1.000000,1.000000,0.000003,0.000000,0.131772,-0.146969,7.400000,5.721267,-6795364569.651345,0.357000,0.160775,0.045900,-6795364569.561345,4.624296,16.000000,-1.119663,0.648518,0.160775,0.741501,0.740575,0.008586,1.000000,0.000000,-6795364569.611345,0.132446,-0.313475,-1.117113,0.000000,7.605288,0.000000,-5.834765,390.419952,0.199615,0.000000,0.357000,0.636540,7.746609,0.687822,0.361136,-0.290252,-6795364569.651345,0.164000,0.166222,-0.002836,24.098085,17.960271,-0.026885,0.357000,-3.046129,0.164015,-5.085964,-2.669255
3.141593,8.870730,-0.824000,-0.895634,0.000000,0.000000,441.365021,-0.026358,0.000000,0.000000,-4.568322,5.631358,10.000000,-0.306966,0.895997,0.055872,0.704896,24.144951,0.637554,-4.287605,1.000000,1.000000,0.000001,0.000000,0.132557,-0.146964,7.400000,5.721267,-6795364569.651345,0.287000,0.163299,0.045473,-6795364569.511345,4.635152,16.000000,-1.118748,0.656148,0.163299,0.741535,0.740611,0.008484,1.000000,0.000000,-6795364569.561345,0.133213,-0.313392,-1.117113,0.000000,7.635699,0.000000,-5.830012,390.419952,0.199615,0.000000,0.357000,0.636028,7.777118,0.687849,0.339518,-0.289691,-6795364569.551345,0.165150,0.167401,-0.002552,24.257567,17.934649,-0.026358,0.287000,-3.046129,0.163903,-5.085964,-2.669255
3.141593,8.884321,-0.818913,-0.895692,0.000000,0.000000,441.346680,-0.027975,0.000000,0.000000,-4.618206,5.629256,10.000000,-0.306966,0.895969,0.055890,0.704895,24.297682,0.637060,-4.335891,1.000000,1.000000,360.000000,0.000000,0.133325,-0.147279,7.400000,5.721267,-6795364569.551345,0.287000,0.163299,0.046632,-6795364569.461345,4.617063,16.000000,-1.119500,0.633259,0.163299,0.741571,0.740649,0.008016,1.000000,0.000000,-6795364569.511345,0.133970,-0.313422,-1.117113,0.000000,7.666068,0.000000,-5.844944,390.419952,0.199615,0.000000,0.287000,0.635522,7.807694,0.687806,0.371309,-0.290307,-6795364569.551345,0.166272,0.168546,-0.002552,24.413060,17.951186,-0.026358,0.287000,-3.046129,0.164084,-5.085964,-2.832969
3.141593,8.888732,-0.804926,-0.895467,0.000000,0.000000,441.346680,-0.027975,0.000000,0.000000,-4.667146,5.618762,10.000000,-0.306966,0.895909,0.055808,0.704901,24.446569,0.636576,-4.383396,1.000000,1.000000,0.000000,0.000000,0.134077,-0.147234,7.400000,5.721267,-6795364569.551345,0.493000,0.169893,0.045778,-6795364569.411345,4.619597,16.000000,-1.118809,0.644704,0.169893,0.741605,0.740684,0.008179,1.000000,0.000000,-6795364569.461345,0.134707,-0.313374,-1.117113,0.000000,7.695559,0.000000,-5.849007,390.419952,0.199615,0.000000,0.287000,0.635027,7.837325,0.687812,0.370037,-0.289892,-6795364569.441345,0.167367,0.169667,-0.002297,24.565179,17.942284,-0.027975,0.493000,-3.046129,0.164057,-5.085964,-2.832969
3.141593,8.865855,-0.783308,-0.895385,0.000000,0.000000,441.261322,-0.037341,0.000000,0.000000,-4.714965,5.604305,10.000000,-0.306966,0.895853,0.055875,0.704896,24.591504,0.636112,-4.430366,1.000000,1.000000,359.999999,0.000000,0.134806,-0.146627,7.400000,5.721267,-6795364569.441345,0.493000,0.169893,0.045615,-6795364569.361345,4.627112,16.000000,-1.118564,0.645975,0.169893,0.741629,0.740711,0.009156,1.000000,0.000000,-6795364569.411345,0.135418,-0.313312,-1.117113,0.000000,7.722893,0.000000,-5.826742,390.419952,0.199615,0.000000,0.493000,0.634551,7.864790,0.687862,0.338247,-0.289636,-6795364569.441345,0.168439,0.170760,-0.002297,24.713356,17.930286,-0.027975,0.493000,-3.046129,0.163847,-5.085964,-3.781428
3.141593,8.830659,-0.812555,-0.896014,0.000000,0.000000,441.261322,-0.037341,0.000000,0.000000,-4.762692,5.618485,10.000000,-0.306966,0.895896,0.056224,0.704868,24.734560,0.635653,-4.477569,1.000000,1.000000,0.000003,0.000000,0.135518,-0.146079,7.400000,5.721267,-6795364569.441345,0.404000,0.174576,0.046815,-6795364569.311345,4.631299,16.000000,-1.119907,0.652333,0.174576,0.741651,0.740734,0.009949,1.000000,0.000000,-6795364569.361345,0.136114,-0.313355,-1.117113,0.000000,7.749377,0.000000,-5.833160,390.419952,0.199615,0.000000,0.493000,0.634082,7.891499,0.687881,0.350963,-0.290460,-6795364569.341345,0.169502,0.171838,-0.002067,24.858916,17.951834,-0.037341,0.404000,-3.046129,0.163765,-5.085964,-3.781428
3.141593,8.858325,-0.818913,-0.896195,0.000000,0.000000,441.300232,-0.032090,0.000000,0.000000,-4.810353,5.626080,10.000000,-0.306966,0.895934,0.056113,0.704877,24.875221,0.635201,-4.523386,1.000000,1.000000,360.000000,0.000000,0.136216,-0.147031,7.400000,5.721267,-6795364569.341345,0.404000,0.174576,0.046551,-6795364569.261345,4.628094,16.000000,-1.120151,0.648518,0.174576,0.741672,0.740756,0.008098,1.000000,0.000000,-6795364569.311345,0.136803,-0.313379,-1.117113,0.000000,7.775407,0.000000,-5.841910,390.419952,0.199615,0.000000,0.404000,0.633618,7.917626,0.687828,0.361136,-0.290594,-6795364569.341345,0.170543,0.172904,-0.002067,25.002243,17.961347,-0.037341,0.404000,-3.046129,0.163989,-5.085964,-3.249761
3.141593,8.877022,-0.831629,-0.896472,0.000000,0.000000,441.300232,-0.032090,0.000000,0.000000,-4.856436,5.638416,10.000000,-0.306966,0.896000,0.055908,0.704893,25.013305,0.634760,-4.567797,1.000000,1.000000,0.000001,0.000000,0.136908,-0.147306,7.400000,5.721267,-6795364569.341345,0.541000,0.181904,0.045839,-6795364569.211345,4.626444,16.000000,-1.120334,0.644704,0.181904,0.741687,0.740773,0.008179,1.000000,0.000000,-6795364569.261345,0.137482,-0.313334,-1.117113,0.000000,7.800481,0.000000,-5.838583,390.748047,0.199615,0.000000,0.404000,0.633166,7.942729,0.687822,0.350963,-0.290254,-6795364569.241345,0.171561,0.173948,-0.001860,25.143461,17.946810,-0.032090,0.541000,-3.046129,0.164014,-5.085964,-3.249761
3.141593,8.868170,-0.803654,-0.895576,0.000000,0.000000,441.300232,-0.031461,0.000000,0.000000,-4.900593,5.622756,10.000000,-0.306966,0.895919,0.055888,0.704895,25.147511,0.634330,-4.610900,1.000000,1.000000,360.000000,0.000000,0.137584,-0.146802,7.400000,5.721267,-6795364569.241345,0.541000,0.181904,0.045696,-6795364569.161345,4.613848,16.000000,-1.118442,0.628173,0.181904,0.741700,0.740789,0.008871,1.000000,0.000000,-6795364569.211345,0.138143,-0.313285,-1.117113,0.000000,7.824782,0.000000,-5.834621,390.748047,0.199615,0.000000,0.541000,0.632725,7.967099,0.687852,0.356049,-0.289772,-6795364569.241345,0.172549,0.174958,-0.001860,25.280692,17.934654,-0.032090,0.541000,-3.046129,0.163887,-5.085964,-3.186040
3.141593,8.852332,-0.793481,-0.895739,0.000000,0.000000,441.300232,-0.031461,0.000000,0.000000,-4.944897,5.611060,10.000000,-0.306966,0.895908,0.055794,0.704902,25.277752,0.633913,-4.654258,1.000000,1.000000,359.999998,0.000000,0.138234,-0.146480,7.400000,5.721267,-6795364569.241345,0.434000,0.186946,0.044740,-6795364569.111345,4.633178,16.000000,-1.118870,0.659963,0.186946,0.741710,0.740802,0.009278,1.000000,0.000000,-6795364569.161345,0.138774,-0.313152,-1.117113,0.000000,7.847775,0.000000,-5.832114,390.748047,0.199615,0.000000,0.541000,0.632297,7.990098,0.687920,0.347148,-0.289145,-6795364569.151345,0.173518,0.175949,-0.001674,25.414289,17.903478,-0.031461,0.434000,-3.046129,0.163605,-5.085964,-3.186040
3.141593,8.851346,-0.816370,-0.896909,0.000000,0.000000,441.244049,-0.037370,0.000000,0.000000,-4.988906,5.621566,10.000000,-0.306966,0.896058,0.055672,0.704912,25.405343,0.633501,-4.697044,1.000000,1.000000,359.999999,0.000000,0.138866,-0.146748,7.400000,5.721267,-6795364569.151345,0.434000,0.186946,0.044679,-6795364569.061345,4.633335,16.000000,-1.120884,0.656148,0.186946,0.741721,0.740816,0.008993,1.000000,0.000000,-6795364569.111345,0.139392,-0.313020,-1.117113,0.000000,7.870557,0.000000,-5.844381,390.748047,0.199615,0.000000,0.434000,0.631874,8.012894,0.687951,0.363679,-0.289240,-6795364569.151345,0.174468,0.176923,-0.001674,25.544952,17.882681,-0.031461,0.434000,-3.046129,0.163474,-5.085964,-3.784434
3.141593,8.860314,-0.824000,-0.896645,0.000000,0.000000,441.244049,-0.037370,0.000000,0.000000,-5.032812,5.627023,10.000000,-0.306966,0.896105,0.055726,0.704908,25.530871,0.633090,-4.739606,1.000000,1.000000,359.999999,0.000000,0.139481,-0.146956,7.400000,5.721267,-6795364569.151345,0.301000,0.189227,0.045717,-6795364569.011345,4.639673,16.000000,-1.120151,0.671407,0.189227,0.741735,0.740831,0.008606,1.000000,0.000000,-6795364569.061345,0.139998,-0.312999,-1.117113,0.000000,7.893341,0.000000,-5.866136,390.419952,0.199615,0.000000,0.434000,0.631453,8.035786,0.687912,0.385296,-0.289749,-6795364569.051345,0.175405,0.177878,-0.001507,25.672682,17.900497,-0.037370,0.301000,-3.046129,0.163635,-5.085964,-3.784434
