E2,A1,GPSTrueCourse,C2,WValid,SmoothGroundSpeed,GPSFixQuality,TW,EGPS2,B3,W2,Pitch,C1,GPSHorizontalAccuracy,H1,RollGyr,needsInitialization,D3,HeadingGPS,EGyr3,gLoad,Z2,W3a,B2,GPSNACp,GPSAltitudeMSL,TWa,Roll,W1,A2,W1a,staticMode,PitchGyr,W2a,EGPS0,B1,M2,W3,T,E3,A3,M1,Heading,D1,BaroVerticalSpeed,RollGPS,HeadingGyr,BaroPressureAltitude,PitchGPS,C3,SmoothW1,M3,D2,slipSkid,turnRate,Z1,headingValid,EGPS3,Ta,H3,headingMag,EGyr2,EGyr0,GroundSpeed,SmoothW2,EGPS1,E0,EGyr1,H2,E1,Z3,GPSVerticalAccuracy
0.000000,0.005413,0.000000,0.045944,1.000000,0.003920,1.000000,-6795364573.131345,0.000000,0.399342,0.196000,0.000000,0.009053,6.200000,0.000000,0.000000,0.000000,0.342265,0.000000,0.707107,0.996307,0.000000,0.010827,0.631178,10.000000,321.522308,-6795364573.131345,0.000000,0.000000,0.049415,0.000000,0.000000,0.000000,0.196000,0.707107,-0.810301,0.000000,0.010827,-6795364573.071345,0.707107,-1.117452,0.000000,0.000000,-0.784478,1.096479,0.000000,0.000000,447.981201,0.000000,-1.121714,0.000000,0.000000,0.644398,-0.003257,-0.001008,0.000000,0.000000,0.707107,-6795364573.071345,0.000000,3.141593,0.000000,0.707107,0.196000,0.003920,0.000000,0.707107,0.000000,0.000000,0.000000,0.000000,12.750000
0.000016,0.005615,0.000000,0.045944,1.000000,0.009762,1.000000,-6795364573.031345,0.000422,0.389111,0.296000,0.003150,0.009053,6.200000,0.040746,0.002037,0.000000,0.342265,359.999913,0.707096,0.996315,-0.003313,0.010827,0.621815,10.000000,320.866150,-6795364573.131345,0.005807,0.000000,0.051088,0.000000,1.000000,0.000723,0.196000,0.707104,-0.843074,0.000000,0.007226,-6795364573.021345,0.707097,-1.117466,0.000000,0.001648,-0.784478,0.731771,0.190516,0.001687,447.952026,0.122079,-1.121714,0.000000,0.000000,0.644398,-0.003406,-0.000908,-0.002123,0.000000,0.707107,-6795364573.071345,-0.033741,3.141593,0.000008,0.707117,0.296000,0.009762,0.001929,0.707117,0.000017,-0.014453,0.000055,-0.697468,12.750000
0.000024,0.005900,0.000000,0.045944,1.000000,0.009762,1.000000,-6795364573.031345,0.000314,0.368765,0.296000,0.007008,0.009053,6.200000,0.023712,0.006993,0.000000,0.342265,359.999973,0.707088,0.996276,-0.003266,0.007226,0.623086,10.000000,320.866150,-6795364573.031345,0.010887,0.000000,0.049399,0.000000,1.000000,0.004074,0.296000,0.707103,-0.801111,0.000000,0.007226,-6795364572.971345,0.707088,-1.117018,0.000000,0.003048,-0.784478,0.731771,0.201693,0.003116,447.952026,0.150773,-1.121714,0.000000,0.000000,0.644398,-0.003391,-0.000908,-0.002580,0.000000,0.707107,-6795364573.021345,-0.029361,3.141593,0.000018,0.707126,0.296000,0.009762,0.002175,0.707126,0.000068,-0.018483,0.000110,-0.906387,12.750000
0.000031,0.007202,0.000000,0.045944,1.000000,0.016346,1.000000,-6795364572.931345,0.000348,0.392926,0.339000,0.010061,0.009053,6.200000,0.015797,0.011677,0.000000,0.342265,359.999990,0.707074,0.996241,-0.002897,0.007226,0.629444,10.000000,320.209991,-6795364573.031345,0.015052,0.000000,0.048830,0.000000,1.000000,0.007735,0.296000,0.707104,-0.797296,0.000000,0.007084,-6795364572.921345,0.707075,-1.117038,0.000000,0.005176,-0.784478,0.717422,0.180409,0.005285,447.952026,0.124069,-1.121714,0.000000,0.000000,0.644398,-0.003327,-0.000817,-0.001905,0.000000,0.707107,-6795364572.971345,-0.044741,3.141593,0.000024,0.707139,0.339000,0.016346,0.001879,0.707139,0.000120,-0.014553,0.000155,-0.969068,12.750000
0.000043,0.005331,0.000000,0.045944,1.000000,0.016346,1.000000,-6795364572.931345,0.000282,0.406913,0.339000,0.013529,0.009053,6.200000,0.035596,0.016832,0.000000,0.342265,359.999995,0.707057,0.996342,-0.003586,0.007084,0.630716,10.000000,320.209991,-6795364572.931345,0.020487,0.000000,0.050172,0.000000,1.000000,0.010665,0.339000,0.707103,-0.829086,0.000000,0.007084,-6795364572.871345,0.707058,-1.118483,0.000000,0.007973,-0.784478,0.717422,0.199572,0.008140,447.952026,0.153914,-1.121714,0.000000,0.000000,0.644398,-0.003384,-0.000817,-0.002877,0.000000,0.707107,-6795364572.921345,-0.059280,3.141593,0.000038,0.707157,0.339000,0.016346,0.002181,0.707156,0.000170,-0.012084,0.000210,-0.988797,12.750000
0.000051,0.005249,0.000000,0.045944,1.000000,0.021739,1.000000,-6795364572.831345,0.000254,0.404370,0.286000,0.016724,0.009053,6.200000,0.011291,0.021052,0.000000,0.342265,359.999997,0.707039,0.996338,-0.003896,0.007084,0.648518,10.000000,319.553833,-6795364572.931345,0.024973,0.000000,0.050295,0.000000,1.000000,0.013477,0.339000,0.707103,-0.785852,0.000000,0.021632,-6795364572.821345,0.707040,-1.117405,0.000000,0.010802,-0.784478,2.190596,0.217069,0.011028,448.078461,0.175847,-1.121714,0.000000,0.000000,0.644398,-0.003450,-0.000735,-0.003214,0.000000,0.707107,-6795364572.871345,-0.061110,3.141593,0.000047,0.707175,0.286000,0.021739,0.002425,0.707173,0.000213,0.001036,0.000257,-0.994046,12.750000
0.000064,0.006226,0.000000,0.045944,1.000000,0.021739,1.000000,-6795364572.831345,0.000393,0.409457,0.286000,0.019802,0.009053,6.200000,0.023550,0.026151,0.000000,0.342265,360.000000,0.707020,0.996147,-0.003967,0.021632,0.635802,10.000000,319.553833,-6795364572.831345,0.030131,0.000000,0.050172,0.000000,1.000000,0.016911,0.286000,0.707103,-0.813827,0.000000,0.021632,-6795364572.771345,0.707022,-1.115309,0.000000,0.013802,-0.784478,2.190596,0.225119,0.014089,448.078461,0.161484,-1.121714,0.000000,0.000000,0.644398,-0.003507,-0.000735,-0.002696,0.000000,0.707107,-6795364572.821345,-0.065738,3.141593,0.000057,0.707194,0.286000,0.021739,0.002386,0.707192,0.000266,-0.003777,0.000308,-0.994318,12.750000
0.000086,0.009278,0.000000,0.045944,1.000000,0.023165,1.000000,-6795364572.731345,0.000829,0.389111,0.093000,0.020740,0.009053,6.200000,0.018444,0.031054,0.000000,0.342265,359.999994,0.707005,0.996081,-0.003501,0.021632,0.648518,10.000000,318.897644,-6795364572.831345,0.034606,0.000000,0.049440,0.000000,1.000000,0.019646,0.286000,0.707105,-0.801111,0.000000,0.017944,-6795364572.721345,0.707007,-1.116489,0.000000,0.016095,-0.784478,1.817145,0.208652,0.016425,448.050354,0.074365,-1.121714,0.000000,0.000000,0.644398,-0.003488,-0.000662,-0.000643,0.000000,0.707106,-6795364572.771345,-0.052461,3.141593,0.000070,0.707208,0.093000,0.023165,0.001746,0.707206,0.000313,0.003091,0.000342,-0.995131,12.750000
0.000096,0.006429,0.000000,0.045944,1.000000,0.023165,1.000000,-6795364572.731345,0.000617,0.401827,0.093000,0.023439,0.009053,6.200000,0.025732,0.035894,0.000000,0.342265,359.999999,0.706989,0.996163,-0.003295,0.017944,0.605284,10.000000,318.897644,-6795364572.731345,0.039081,0.000000,0.049399,0.000000,1.000000,0.021974,0.093000,0.707105,-0.813827,0.000000,0.017944,-6795364572.671345,0.706992,-1.118117,0.000000,0.018647,-0.784478,1.817145,0.195225,0.019030,448.050354,0.095225,-1.121714,0.000000,0.000000,0.644398,-0.003461,-0.000662,-0.001811,0.000000,0.707107,-6795364572.721345,-0.058681,3.141593,0.000086,0.707224,0.093000,0.023165,0.001792,0.707222,0.000357,-0.024724,0.000386,-0.996373,12.750000
0.000107,0.005799,0.000000,0.045944,1.000000,0.027021,1.000000,-6795364572.631345,0.000360,0.381481,0.216000,0.026028,0.009053,6.200000,0.027151,0.040439,0.000000,0.342265,0.000001,0.706978,0.996348,-0.003265,0.017944,0.640889,10.000000,318.569550,-6795364572.731345,0.043428,0.000000,0.049501,0.000000,1.000000,0.023875,0.093000,0.707104,-0.812555,0.000000,0.018847,-6795364572.621345,0.706980,-1.119358,0.000000,0.020491,-0.784478,1.908629,0.189829,0.020912,448.061157,0.131555,-1.121714,0.000000,0.000000,0.644398,-0.003440,-0.000595,-0.002561,0.000000,0.707107,-6795364572.671345,-0.045291,3.141593,0.000102,0.707236,0.216000,0.027021,0.001983,0.707233,0.000397,-0.008748,0.000429,-0.997519,12.750000
0.000108,0.005331,0.000000,0.045944,1.000000,0.027021,1.000000,-6795364572.631345,0.000008,0.391654,0.216000,0.028858,0.009053,6.200000,0.010608,0.043959,0.000000,0.342265,0.000003,0.706965,0.996396,-0.002667,0.018847,0.643432,10.000000,318.569550,-6795364572.631345,0.046365,0.000000,0.048504,0.000000,1.000000,0.026120,0.216000,0.707104,-0.788395,0.000000,0.018847,-6795364572.571345,0.706968,-1.118076,0.000000,0.022439,-0.784478,1.908629,0.164242,0.022900,448.061157,0.163023,-1.121714,0.000000,0.000000,0.644398,-0.003338,-0.000595,-0.003072,0.000000,0.707107,-6795364572.621345,-0.048179,3.141593,0.000110,0.707248,0.216000,0.027021,0.002019,0.707245,0.000432,-0.001886,0.000464,-0.997036,12.750000
0.000111,0.006104,0.000000,0.045944,1.000000,0.028481,1.000000,-6795364572.531345,0.000105,0.381481,0.100000,0.031686,0.009053,6.200000,0.014602,0.047096,0.000000,0.342265,0.000001,0.706955,0.996411,-0.003156,0.018847,0.637074,10.000000,317.257233,-6795364572.631345,0.049681,0.000000,0.049562,0.000000,1.000000,0.029084,0.216000,0.707104,-0.801111,0.000000,0.015089,-6795364572.521345,0.706958,-1.117710,0.000000,0.024055,-0.784478,1.527995,0.176288,0.024549,448.031982,0.159202,-1.121714,0.000000,0.000000,0.644398,-0.003342,-0.000536,-0.002741,0.000000,0.707107,-6795364572.571345,-0.042185,3.141593,0.000111,0.707258,0.100000,0.028481,0.002070,0.707255,0.000470,-0.004565,0.000502,-0.996694,12.750000
0.000116,0.005737,0.000000,0.045944,1.000000,0.028481,1.000000,-6795364572.531345,0.000351,0.422173,0.100000,0.034909,0.009053,6.200000,0.012008,0.050283,0.000000,0.342265,360.000000,0.706937,0.996313,-0.004148,0.015089,0.625629,10.000000,317.257233,-6795364572.531345,0.053677,0.000000,0.050864,0.000000,1.000000,0.032294,0.100000,0.707103,-0.796024,0.000000,0.015089,-6795364572.471345,0.706940,-1.116408,0.000000,0.026959,-0.784478,1.527995,0.219935,0.027513,448.031982,0.163101,-1.121714,0.000000,0.000000,0.644398,-0.003467,-0.000536,-0.002864,0.000000,0.707107,-6795364572.521345,-0.069145,3.141593,0.000111,0.707276,0.100000,0.028481,0.002364,0.707273,0.000510,-0.012208,0.000547,-0.995812,12.750000
0.000117,0.004822,0.000000,0.045944,1.000000,0.030831,1.000000,-6795364572.431345,0.000159,0.400555,0.146000,0.037941,0.009053,6.200000,0.001566,0.053757,0.000000,0.342265,0.000000,0.706921,0.996282,-0.003692,0.015089,0.648518,10.000000,315.616791,-6795364572.531345,0.056976,0.000000,0.049684,0.000000,1.000000,0.034862,0.100000,0.707102,-0.782037,0.000000,0.014793,-6795364572.421345,0.706925,-1.117100,0.000000,0.029423,-0.784478,1.498035,0.214666,0.030028,448.031982,0.188858,-1.121714,0.000000,0.000000,0.644398,-0.003472,-0.000482,-0.003475,0.000000,0.707107,-6795364572.471345,-0.061379,3.141593,0.000116,0.707292,0.146000,0.030831,0.002490,0.707288,0.000547,0.000889,0.000586,-0.995943,12.750000
0.000119,0.005412,0.000000,0.045944,1.000000,0.030831,1.000000,-6795364572.431345,0.000124,0.373852,0.146000,0.041897,0.009053,6.200000,0.024389,0.058197,0.000000,0.342265,0.000000,0.706912,0.996283,-0.003598,0.014793,0.615457,10.000000,315.616791,-6795364572.431345,0.061219,0.000000,0.049766,0.000000,1.000000,0.038892,0.146000,0.707103,-0.818913,0.000000,0.014793,-6795364572.371345,0.706916,-1.117425,0.000000,0.030867,-0.784478,1.498035,0.209254,0.031500,448.031982,0.189185,-1.121714,0.000000,0.000000,0.644398,-0.003482,-0.000482,-0.003292,0.000000,0.707107,-6795364572.421345,-0.041529,3.141593,0.000119,0.707301,0.146000,0.030831,0.002459,0.707297,0.000599,-0.019071,0.000636,-0.996190,12.750000
0.000133,0.005005,0.000000,0.045944,1.000000,0.036855,1.000000,-6795364572.331345,-0.000010,0.427259,0.332000,0.044235,0.009053,6.200000,0.039848,0.063214,0.000000,0.342265,0.000000,0.706894,0.996248,-0.003301,0.014793,0.671407,10.000000,313.976379,-6795364572.431345,0.065864,0.000000,0.049318,0.000000,1.000000,0.041113,0.146000,0.707103,-0.831629,0.000000,0.010235,-6795364572.321345,0.706899,-1.117038,0.000000,0.033743,-0.784478,1.036472,0.195687,0.034435,447.995239,0.197232,-1.121714,0.000000,0.000000,0.644398,-0.003452,-0.000434,-0.003489,0.000000,0.707107,-6795364572.371345,-0.071395,3.141593,0.000136,0.707319,0.332000,0.036855,0.002425,0.707315,0.000644,0.015604,0.000679,-0.996010,12.750000
0.000136,0.005046,0.000000,0.045944,1.000000,0.036855,1.000000,-6795364572.331345,-0.000104,0.427259,0.332000,0.046787,0.009053,6.200000,0.014218,0.066578,0.000000,0.342265,0.000000,0.706874,0.996200,-0.003115,0.010235,0.651062,10.000000,313.976379,-6795364572.331345,0.068931,0.000000,0.049155,0.000000,1.000000,0.043641,0.332000,0.707103,-0.788395,0.000000,0.010235,-6795364572.271345,0.706878,-1.116855,0.000000,0.037018,-0.784478,1.036472,0.184153,0.037777,447.995239,0.200987,-1.121714,0.000000,0.000000,0.644398,-0.003412,-0.000434,-0.003521,0.000000,0.707107,-6795364572.321345,-0.080694,3.141593,0.000141,0.707340,0.332000,0.036855,0.002377,0.707335,0.000680,0.011776,0.000714,-0.995838,12.750000
0.000131,0.006348,0.000000,0.045944,1.000000,0.039958,1.000000,-6795364572.231345,0.000143,0.412000,0.192000,0.050276,0.009053,6.200000,0.002154,0.069041,0.000000,0.342265,0.000001,0.706855,0.996399,-0.003434,0.010235,0.606555,10.000000,313.648285,-6795364572.331345,0.071528,0.000000,0.049867,0.000000,1.000000,0.047830,0.332000,0.707103,-0.782037,0.000000,0.012419,-6795364572.221345,0.706860,-1.119541,0.000000,0.039905,-0.784478,1.257667,0.193325,0.040722,448.015778,0.170180,-1.121714,0.000000,0.000000,0.644398,-0.003428,-0.000391,-0.002733,0.000000,0.707107,-6795364572.271345,-0.074050,3.141593,0.000131,0.707358,0.192000,0.039958,0.002243,0.707353,0.000721,-0.020937,0.000752,-0.997484,12.750000
0.000135,0.005656,0.000000,0.045944,1.000000,0.039958,1.000000,-6795364572.231345,0.000305,0.389111,0.192000,0.053693,0.009053,6.200000,0.022700,0.072665,0.000000,0.342265,0.000001,0.706843,0.996330,-0.003969,0.012419,0.620543,10.000000,313.648285,-6795364572.231345,0.075569,0.000000,0.050457,0.000000,1.000000,0.051354,0.192000,0.707103,-0.816370,0.000000,0.012419,-6795364572.171345,0.706849,-1.116733,0.000000,0.041842,-0.784478,1.257667,0.217788,0.042699,448.015778,0.168353,-1.121714,0.000000,0.000000,0.644398,-0.003507,-0.000391,-0.002914,0.000000,0.707107,-6795364572.221345,-0.055842,3.141593,0.000131,0.707370,0.192000,0.039958,0.002383,0.707364,0.000765,-0.021624,0.000798,-0.996241,12.750000
0.000129,0.004639,0.000000,0.045944,1.000000,0.044138,1.000000,-6795364572.131345,0.000069,0.408185,0.249000,0.057788,0.009053,6.200000,0.012733,0.076208,0.000000,0.342265,0.000001,0.706829,0.996329,-0.003515,0.012419,0.614185,10.000000,312.664062,-6795364572.231345,0.078822,0.000000,0.049501,0.000000,1.000000,0.054975,0.192000,0.707102,-0.793481,0.000000,0.007657,-6795364572.121345,0.706834,-1.117466,0.000000,0.044128,-0.784478,0.775394,0.206845,0.045032,447.976898,0.195655,-1.121714,0.000000,0.000000,0.644398,-0.003490,-0.000352,-0.003606,0.000000,0.707107,-6795364572.171345,-0.063773,3.141593,0.000131,0.707384,0.249000,0.044138,0.002484,0.707379,0.000810,-0.025730,0.000843,-0.996294,12.750000
0.000123,0.005086,0.000000,0.045944,1.000000,0.044138,1.000000,-6795364572.131345,0.000046,0.442518,0.249000,0.061347,0.009053,6.200000,-0.002908,0.078681,0.000000,0.342265,0.000000,0.706807,0.996206,-0.003630,0.007657,0.630716,10.000000,312.664062,-6795364572.131345,0.081275,0.000000,0.049847,0.000000,1.000000,0.058502,0.249000,0.707102,-0.775679,0.000000,0.007657,-6795364572.071345,0.706813,-1.116082,0.000000,0.047634,-0.784478,0.775394,0.208299,0.048609,447.976898,0.200810,-1.121714,0.000000,0.000000,0.644398,-0.003510,-0.000352,-0.003527,0.000000,0.707107,-6795364572.121345,-0.089590,3.141593,0.000124,0.707406,0.249000,0.044138,0.002524,0.707400,0.000847,-0.014417,0.000880,-0.995460,12.750000
0.000131,0.004700,0.000000,0.045944,1.000000,0.044138,1.000000,-6795364572.131345,-0.000141,0.396741,0.249000,0.063680,0.009053,6.200000,0.031830,0.082870,0.000000,0.342265,0.000001,0.706793,0.996156,-0.003126,0.007657,0.667592,10.000000,312.664062,-6795364572.131345,0.084982,0.000000,0.049013,0.000000,1.000000,0.060670,0.249000,0.707102,-0.831629,0.000000,0.009892,-6795364572.021345,0.706799,-1.116794,0.000000,0.049842,-0.784478,1.001708,0.188429,0.050862,447.997406,0.211232,-1.121714,0.000000,0.000000,0.644398,-0.003452,-0.000352,-0.003748,0.000000,0.707107,-6795364572.071345,-0.064579,3.141593,0.000137,0.707420,0.249000,0.044138,0.002466,0.707414,0.000886,0.013458,0.000917,-0.995630,12.750000
0.000141,0.005656,0.000000,0.045944,1.000000,0.046056,1.000000,-6795364572.021345,0.000092,0.389111,0.140000,0.065945,0.009053,6.200000,0.028048,0.086388,0.000000,0.342265,0.000002,0.706783,0.996161,-0.003761,0.009892,0.645975,10.000000,311.679810,-6795364572.131345,0.088820,0.000000,0.050295,0.000000,1.000000,0.063352,0.249000,0.707102,-0.811284,0.000000,0.009892,-6795364571.971345,0.706790,-1.117303,0.000000,0.051402,-0.784478,1.001708,0.207966,0.052453,447.997406,0.193072,-1.121714,0.000000,0.000000,0.644398,-0.003511,-0.000316,-0.003221,0.000000,0.707107,-6795364572.021345,-0.052243,3.141593,0.000142,0.707430,0.140000,0.046056,0.002475,0.707423,0.000924,0.006482,0.000955,-0.996035,12.750000
0.000150,0.006165,0.000000,0.045944,1.000000,0.055755,1.000000,-6795364571.931345,0.000323,0.400555,0.531000,0.068582,0.009053,6.200000,0.030404,0.090344,0.000000,0.342265,0.000002,0.706772,0.995995,-0.003924,0.009892,0.621815,10.000000,311.023651,-6795364572.021345,0.092949,0.000000,0.050172,0.000000,1.000000,0.066550,0.140000,0.707103,-0.816370,0.000000,0.010827,-6795364571.921345,0.706779,-1.115390,0.000000,0.053178,-0.784478,1.096470,0.220564,0.054266,448.007141,0.168218,-1.121714,0.000000,0.000000,0.644398,-0.003562,-0.000285,-0.002736,0.000000,0.707107,-6795364571.971345,-0.057268,3.141593,0.000146,0.707441,0.531000,0.055755,0.002399,0.707434,0.000968,-0.012181,0.000997,-0.994965,12.750000
0.000153,0.005900,0.000000,0.045944,1.000000,0.055755,1.000000,-6795364571.931345,0.000202,0.389111,0.531000,0.071116,0.009053,6.200000,0.020496,0.093977,0.000000,0.342265,360.000000,0.706763,0.996161,-0.003197,0.010827,0.628173,10.000000,311.023651,-6795364571.931345,0.095994,0.000000,0.049074,0.000000,1.000000,0.069261,0.531000,0.707103,-0.801111,0.000000,0.010827,-6795364571.871345,0.706770,-1.118971,0.000000,0.054589,-0.784478,1.096470,0.194800,0.055705,448.007141,0.162050,-1.121714,0.000000,0.000000,0.644398,-0.003495,-0.000285,-0.002773,0.000000,0.707107,-6795364571.921345,-0.050503,3.141593,0.000152,0.707450,0.531000,0.055755,0.002202,0.707443,0.001007,-0.013661,0.001031,-0.996845,12.750000
0.000167,0.006714,0.000000,0.045944,1.000000,0.063219,1.000000,-6795364571.831345,0.000457,0.396741,0.429000,0.071950,0.009053,6.200000,0.014818,0.096739,0.000000,0.342265,0.000002,0.706754,0.996258,-0.003870,0.010827,0.663778,10.000000,310.695526,-6795364571.931345,0.099087,0.000000,0.050478,0.000000,1.000000,0.070561,0.531000,0.707103,-0.797296,0.000000,0.020908,-6795364571.821345,0.706761,-1.118320,0.000000,0.056080,-0.784478,2.117311,0.214122,0.057226,448.095734,0.140096,-1.121714,0.000000,0.000000,0.644398,-0.003562,-0.000256,-0.002274,0.000000,0.707107,-6795364571.871345,-0.052768,3.141593,0.000161,0.707459,0.429000,0.063219,0.002186,0.707452,0.001032,0.011016,0.001055,-0.997043,12.750000
0.000170,0.004232,0.000000,0.045944,1.000000,0.063219,1.000000,-6795364571.831345,0.000264,0.401827,0.429000,0.075215,0.009053,6.200000,0.021085,0.100145,0.000000,0.342265,359.999997,0.706743,0.996133,-0.004170,0.020908,0.610370,10.000000,310.695526,-6795364571.831345,0.102788,0.000000,0.050539,0.000000,1.000000,0.072885,0.429000,0.707102,-0.808741,0.000000,0.020908,-6795364571.771345,0.706750,-1.115960,0.000000,0.057829,-0.784478,2.117311,0.232233,0.059012,448.095734,0.189471,-1.121714,0.000000,0.000000,0.644398,-0.003638,-0.000256,-0.003660,0.000000,0.707107,-6795364571.821345,-0.058599,3.141593,0.000168,0.707470,0.429000,0.063219,0.002602,0.707463,0.001068,-0.018789,0.001098,-0.995622,12.750000
0.000179,0.006348,0.000000,0.045944,1.000000,0.066395,1.000000,-6795364571.731345,0.000309,0.423444,0.222000,0.077603,0.009053,6.200000,0.033529,0.104469,0.000000,0.342265,359.999998,0.706727,0.995936,-0.003676,0.020908,0.633259,10.000000,310.367462,-6795364571.831345,0.106739,0.000000,0.049562,0.000000,1.000000,0.075763,0.429000,0.707103,-0.824000,0.000000,0.021628,-6795364571.721345,0.706734,-1.115024,0.000000,0.060342,-0.784478,2.190198,0.217900,0.061575,448.105469,0.167807,-1.121714,0.000000,0.000000,0.644398,-0.003623,-0.000231,-0.002752,0.000000,0.707107,-6795364571.771345,-0.074898,3.141593,0.000177,0.707486,0.222000,0.066395,0.002380,0.707478,0.001112,-0.011102,0.001138,-0.994598,12.750000
0.000185,0.006429,0.000000,0.045944,1.000000,0.066395,1.000000,-6795364571.731345,0.000394,0.386568,0.222000,0.079759,0.009053,6.200000,0.019667,0.107726,0.000000,0.342265,359.999999,0.706718,0.995871,-0.003647,0.021628,0.625629,10.000000,310.367462,-6795364571.731345,0.109820,0.000000,0.049806,0.000000,1.000000,0.078357,0.222000,0.707103,-0.798568,0.000000,0.021628,-6795364571.671345,0.706725,-1.116286,0.000000,0.061784,-0.784478,2.190198,0.212383,0.063047,448.105469,0.148482,-1.121714,0.000000,0.000000,0.644398,-0.003626,-0.000231,-0.002435,0.000000,0.707107,-6795364571.721345,-0.054071,3.141593,0.000181,0.707495,0.222000,0.066395,0.002227,0.707487,0.001148,-0.015189,0.001170,-0.995083,12.750000
0.000175,0.004212,0.000000,0.045944,1.000000,0.076467,1.000000,-6795364571.631345,0.000021,0.419630,0.570000,0.082944,0.009053,6.200000,-0.004261,0.109612,0.000000,0.342265,0.000002,0.706704,0.996155,-0.003350,0.021628,0.621815,10.000000,309.711304,-6795364571.731345,0.111389,0.000000,0.049501,0.000000,1.000000,0.080659,0.222000,0.707103,-0.770592,0.000000,0.021204,-6795364571.621345,0.706712,-1.120151,0.000000,0.064023,-0.784478,2.147253,0.198402,0.065331,448.105469,0.194979,-1.121714,0.000000,0.000000,0.644398,-0.003586,-0.000208,-0.003742,0.000000,0.707107,-6795364571.671345,-0.070898,3.141593,0.000178,0.707509,0.570000,0.076467,0.002427,0.707501,0.001174,-0.018136,0.001199,-0.997618,12.750000
0.000178,0.005860,0.000000,0.045944,1.000000,0.076467,1.000000,-6795364571.631345,0.000415,0.396741,0.570000,0.086030,0.009053,6.200000,0.017171,0.112252,0.000000,0.342265,0.000003,0.706693,0.996096,-0.004735,0.021204,0.618000,10.000000,309.711304,-6795364571.631345,0.115011,0.000000,0.051719,0.000000,1.000000,0.084055,0.570000,0.707102,-0.811284,0.000000,0.021204,-6795364571.571345,0.706701,-1.116530,0.000000,0.065696,-0.784478,2.147253,0.250153,0.067039,448.105469,0.182848,-1.121714,0.000000,0.000000,0.644398,-0.003763,-0.000208,-0.003089,0.000000,0.707107,-6795364571.621345,-0.060277,3.141593,0.000173,0.707519,0.570000,0.076467,0.002672,0.707511,0.001211,-0.022344,0.001241,-0.996187,12.750000
0.000197,0.007447,0.000000,0.045944,1.000000,0.080378,1.000000,-6795364571.531345,0.000683,0.381481,0.272000,0.087200,0.009053,6.200000,0.035265,0.116778,0.000000,0.342265,359.999999,0.706687,0.996145,-0.004157,0.021204,0.644704,10.000000,309.383209,-6795364571.631345,0.119290,0.000000,0.050172,0.000000,1.000000,0.086293,0.570000,0.707103,-0.827815,0.000000,0.017524,-6795364571.521345,0.706696,-1.117710,0.000000,0.066623,-0.784478,1.774651,0.242363,0.067984,448.077362,0.131690,-1.121714,0.000000,0.000000,0.644398,-0.003779,-0.000187,-0.001909,0.000000,0.707106,-6795364571.571345,-0.045746,3.141593,0.000187,0.707525,0.272000,0.080378,0.002308,0.707517,0.001253,-0.005366,0.001274,-0.996462,12.750000
0.000206,0.005127,0.000000,0.045944,1.000000,0.080378,1.000000,-6795364571.531345,0.000425,0.389111,0.272000,0.089832,0.009053,6.200000,0.036191,0.121103,0.000000,0.342265,0.000001,0.706681,0.996103,-0.003881,0.017524,0.610370,10.000000,309.383209,-6795364571.531345,0.123262,0.000000,0.049969,0.000000,1.000000,0.088398,0.272000,0.707103,-0.821457,0.000000,0.017524,-6795364571.471345,0.706689,-1.116774,0.000000,0.067628,-0.784478,1.774651,0.228988,0.069009,448.077362,0.160174,-1.121714,0.000000,0.000000,0.644398,-0.003779,-0.000187,-0.002996,0.000000,0.707107,-6795364571.521345,-0.047671,3.141593,0.000201,0.707531,0.272000,0.080378,0.002401,0.707523,0.001293,-0.024068,0.001315,-0.995944,12.750000
0.000219,0.006165,0.000000,0.045944,1.000000,0.090950,1.000000,-6795364571.431345,0.000349,0.408185,0.609000,0.091005,0.009053,6.200000,0.032812,0.124907,0.000000,0.342265,0.000000,0.706671,0.996104,-0.003571,0.017524,0.656148,10.000000,308.727051,-6795364571.531345,0.126659,0.000000,0.049623,0.000000,1.000000,0.089682,0.272000,0.707103,-0.816370,0.000000,0.012787,-6795364571.421345,0.706679,-1.117222,0.000000,0.069226,-0.784478,1.294953,0.212484,0.070640,448.039551,0.155879,-1.121714,0.000000,0.000000,0.644398,-0.003746,-0.000168,-0.002678,0.000000,0.707107,-6795364571.471345,-0.060249,3.141593,0.000217,0.707541,0.609000,0.090950,0.002273,0.707533,0.001324,0.002886,0.001343,-0.996064,12.750000
0.000235,0.006633,0.000000,0.045944,1.000000,0.090950,1.000000,-6795364571.431345,0.000396,0.412000,0.609000,0.091854,0.009053,6.200000,0.038894,0.128609,0.000000,0.342265,359.999999,0.706659,0.996254,-0.003474,0.012787,0.643432,10.000000,308.727051,-6795364571.431345,0.130107,0.000000,0.049684,0.000000,1.000000,0.090888,0.609000,0.707104,-0.826543,0.000000,0.012787,-6795364571.371345,0.706668,-1.118890,0.000000,0.071129,-0.784478,1.294953,0.203456,0.072581,448.039551,0.139232,-1.121714,0.000000,0.000000,0.644398,-0.003715,-0.000168,-0.002299,0.000000,0.707107,-6795364571.421345,-0.067112,3.141593,0.000232,0.707553,0.609000,0.090950,0.002115,0.707544,0.001355,0.002188,0.001370,-0.997143,12.750000
0.000249,0.004761,0.000000,0.045944,1.000000,0.105771,1.000000,-6795364571.331345,0.000432,0.400555,0.832000,0.092623,0.009053,6.200000,0.014977,0.130860,0.000000,0.342265,359.999994,0.706649,0.996099,-0.004594,0.012787,0.667592,10.000000,308.070892,-6795364571.431345,0.133167,0.000000,0.051393,0.000000,1.000000,0.090919,0.609000,0.707102,-0.789666,0.000000,0.009273,-6795364571.321345,0.706658,-1.115574,0.000000,0.072656,-0.784478,0.939063,0.246116,0.074140,448.011475,0.176180,-1.121714,0.000000,0.000000,0.644398,-0.003854,-0.000151,-0.003336,0.000000,0.707107,-6795364571.371345,-0.060266,3.141593,0.000246,0.707563,0.832000,0.105771,0.002606,0.707554,0.001369,0.018548,0.001393,-0.995435,12.750000
0.000257,0.006185,0.000000,0.045944,1.000000,0.105771,1.000000,-6795364571.331345,0.000436,0.378938,0.832000,0.094190,0.009053,6.200000,0.015925,0.133966,0.000000,0.342265,359.999998,0.706645,0.995953,-0.003992,0.009273,0.630716,10.000000,308.070892,-6795364571.331345,0.135984,0.000000,0.049888,0.000000,1.000000,0.092766,0.832000,0.707102,-0.801111,0.000000,0.009273,-6795364571.271345,0.706654,-1.115553,0.000000,0.073368,-0.784478,0.939063,0.234773,0.074867,448.011475,0.164068,-1.121714,0.000000,0.000000,0.644398,-0.003844,-0.000151,-0.002759,0.000000,0.707107,-6795364571.321345,-0.044214,3.141593,0.000253,0.707567,0.832000,0.105771,0.002461,0.707558,0.001399,-0.002955,0.001420,-0.994879,12.750000
0.000280,0.006836,0.000000,0.045944,1.000000,0.115716,1.000000,-6795364571.231345,0.000682,0.404370,0.603000,0.094076,0.009053,6.200000,0.026757,0.137326,0.000000,0.342265,0.000001,0.706637,0.995969,-0.004404,0.009273,0.671407,10.000000,307.414703,-6795364571.331345,0.139537,0.000000,0.050905,0.000000,1.000000,0.093195,0.832000,0.707103,-0.816370,0.000000,0.018254,-6795364571.221345,0.706646,-1.117161,0.000000,0.074647,-0.784478,1.848588,0.247837,0.076171,448.090332,0.137347,-1.121714,0.000000,0.000000,0.644398,-0.003919,-0.000136,-0.002188,0.000000,0.707106,-6795364571.271345,-0.056106,3.141593,0.000271,0.707575,0.603000,0.115716,0.002377,0.707566,0.001423,0.019783,0.001442,-0.995743,12.750000
0.000296,0.006470,0.000000,0.045944,1.000000,0.115716,1.000000,-6795364571.231345,0.000736,0.386568,0.603000,0.095460,0.009053,6.200000,0.035435,0.141313,0.000000,0.342265,0.000000,0.706631,0.996031,-0.004387,0.018254,0.615457,10.000000,307.414703,-6795364571.231345,0.143506,0.000000,0.050701,0.000000,1.000000,0.094722,0.603000,0.707103,-0.824000,0.000000,0.018254,-6795364571.171345,0.706640,-1.117710,0.000000,0.075549,-0.784478,1.848588,0.250964,0.077092,448.090332,0.131685,-1.121714,0.000000,0.000000,0.644398,-0.003967,-0.000136,-0.002248,0.000000,0.707106,-6795364571.221345,-0.048869,3.141593,0.000287,0.707581,0.603000,0.115716,0.002361,0.707571,0.001457,-0.013038,0.001475,-0.996337,12.750000
0.000292,0.004700,0.000000,0.045944,1.000000,0.120942,1.000000,-6795364571.131345,0.000328,0.434889,0.377000,0.098925,0.009053,6.200000,0.024408,0.144733,0.000000,0.342265,0.000004,0.706615,0.996148,-0.003806,0.018254,0.591296,10.000000,307.086609,-6795364571.231345,0.146408,0.000000,0.049806,0.000000,1.000000,0.097370,0.603000,0.707102,-0.804926,0.000000,0.017896,-6795364571.121345,0.706625,-1.118442,0.000000,0.078015,-0.784478,1.812341,0.228401,0.079608,448.090332,0.175193,-1.121714,0.000000,0.000000,0.644398,-0.003927,-0.000123,-0.003373,0.000000,0.707107,-6795364571.171345,-0.081077,3.141593,0.000291,0.707596,0.377000,0.120942,0.002490,0.707586,0.001494,-0.038398,0.001514,-0.996940,12.750000
0.000303,0.004639,0.000000,0.045944,1.000000,0.120942,1.000000,-6795364571.131345,0.000197,0.386568,0.377000,0.100667,0.009053,6.200000,0.034742,0.148150,0.000000,0.342265,0.000000,0.706608,0.996165,-0.004139,0.017896,0.668864,10.000000,307.086609,-6795364571.131345,0.149890,0.000000,0.050579,0.000000,1.000000,0.098575,0.377000,0.707102,-0.824000,0.000000,0.017896,-6795364571.071345,0.706618,-1.117425,0.000000,0.079139,-0.784478,1.812341,0.235107,0.080755,448.090332,0.203220,-1.121714,0.000000,0.000000,0.644398,-0.003964,-0.000123,-0.003743,0.000000,0.707107,-6795364571.121345,-0.054830,3.141593,0.000305,0.707603,0.377000,0.120942,0.002705,0.707593,0.001523,0.006861,0.001546,-0.996506,12.750000
0.000312,0.005493,0.000000,0.045944,1.000000,0.133743,1.000000,-6795364571.031345,0.000334,0.400555,0.761000,0.102346,0.009053,6.200000,0.024407,0.151116,0.000000,0.342265,0.000001,0.706601,0.996219,-0.004431,0.017896,0.644704,10.000000,306.102386,-6795364571.131345,0.153072,0.000000,0.050905,0.000000,1.000000,0.100462,0.377000,0.707101,-0.804926,0.000000,0.008508,-6795364571.021345,0.706611,-1.117832,0.000000,0.080363,-0.784478,0.861579,0.248861,0.082004,448.012543,0.194727,-1.121714,0.000000,0.000000,0.644398,-0.004025,-0.000110,-0.003324,0.000000,0.707107,-6795364571.071345,-0.057324,3.141593,0.000311,0.707611,0.761000,0.133743,0.002737,0.707601,0.001553,0.003942,0.001576,-0.996642,12.750000
0.000322,0.006104,0.000000,0.045944,1.000000,0.133743,1.000000,-6795364571.031345,0.000295,0.404370,0.761000,0.103348,0.009053,6.200000,0.027517,0.154453,0.000000,0.342265,359.999998,0.706592,0.996128,-0.003594,0.008508,0.651062,10.000000,306.102386,-6795364571.031345,0.155754,0.000000,0.049359,0.000000,1.000000,0.101957,0.761000,0.707103,-0.813827,0.000000,0.008508,-6795364570.971345,0.706602,-1.116326,0.000000,0.081723,-0.784478,0.861579,0.219434,0.083392,448.012543,0.171590,-1.121714,0.000000,0.000000,0.644398,-0.003947,-0.000110,-0.002810,0.000000,0.707107,-6795364571.021345,-0.060608,3.141593,0.000323,0.707619,0.761000,0.133743,0.002413,0.707609,0.001582,0.007622,0.001599,-0.995709,12.750000
0.000319,0.003906,0.000000,0.045944,1.000000,0.143908,1.000000,-6795364570.931345,-0.000255,0.404370,0.642000,0.104687,0.009053,6.200000,0.008871,0.156203,0.000000,0.342265,0.000007,0.706583,0.996240,-0.002652,0.008508,0.663778,10.000000,305.774292,-6795364571.031345,0.156531,0.000000,0.048341,0.000000,1.000000,0.102459,0.761000,0.707103,-0.785852,0.000000,0.017630,-6795364570.921345,0.706594,-1.118564,0.000000,0.083079,-0.784478,1.785334,0.172547,0.084775,448.092499,0.213886,-1.121714,0.000000,0.000000,0.644398,-0.003778,-0.000099,-0.004036,0.000000,0.707107,-6795364570.971345,-0.061071,3.141593,0.000330,0.707628,0.642000,0.143908,0.002385,0.707617,0.001596,0.017620,0.001612,-0.996786,12.750000
0.000321,0.004883,0.000000,0.045944,1.000000,0.143908,1.000000,-6795364570.931345,-0.000106,0.391654,0.642000,0.106276,0.009053,6.200000,0.022928,0.157682,0.000000,0.342265,0.000002,0.706578,0.996236,-0.003669,0.017630,0.653605,10.000000,305.774292,-6795364570.931345,0.158520,0.000000,0.050376,0.000000,1.000000,0.104023,0.642000,0.707102,-0.813827,0.000000,0.017630,-6795364570.871345,0.706588,-1.117303,0.000000,0.084000,-0.784478,1.785334,0.199464,0.085715,448.092499,0.216707,-1.121714,0.000000,0.000000,0.644398,-0.003812,-0.000099,-0.003790,0.000000,0.707107,-6795364570.921345,-0.052765,3.141593,0.000330,0.707634,0.642000,0.143908,0.002568,0.707623,0.001615,0.013140,0.001634,-0.996380,12.750000
0.000319,0.005066,0.000000,0.045944,1.000000,0.160030,1.000000,-6795364570.831345,-0.000074,0.377667,0.950000,0.108222,0.009053,6.200000,0.015650,0.159306,0.000000,0.342265,0.000000,0.706576,0.996228,-0.003430,0.017630,0.640889,10.000000,304.790039,-6795364570.931345,0.160080,0.000000,0.049501,0.000000,1.000000,0.106146,0.642000,0.707102,-0.797296,0.000000,0.017630,-6795364570.821345,0.706586,-1.117283,0.000000,0.084317,-0.784478,1.305426,0.197926,0.086038,448.054688,0.209989,-1.121714,0.000000,0.000000,0.644398,-0.003765,-0.000089,-0.003601,0.000000,0.707107,-6795364570.871345,-0.040762,3.141593,0.000327,0.707636,0.950000,0.160030,0.002517,0.707625,0.001638,0.002501,0.001656,-0.996224,12.750000
0.000313,0.005493,0.000000,0.045944,1.000000,0.160030,1.000000,-6795364570.831345,-0.000108,0.424716,0.950000,0.110692,0.009053,6.200000,0.024767,0.161325,0.000000,0.342265,359.999999,0.706564,0.995938,-0.002919,0.017630,0.618000,10.000000,304.790039,-6795364570.831345,0.161642,0.000000,0.048667,0.000000,1.000000,0.108979,0.950000,0.707103,-0.813827,0.000000,0.012891,-6795364570.771345,0.706575,-1.114129,0.000000,0.086102,-0.784478,1.305426,0.177131,0.087860,448.054688,0.194597,-1.121714,0.000000,0.000000,0.644398,-0.003660,-0.000089,-0.003262,0.000000,0.707107,-6795364570.821345,-0.070816,3.141593,0.000322,0.707647,0.950000,0.160030,0.002294,0.707636,0.001668,-0.015351,0.001681,-0.994194,12.750000
0.000311,0.005249,0.000000,0.045944,1.000000,0.173649,1.000000,-6795364570.731345,-0.000060,0.373852,0.841000,0.112102,0.009053,6.200000,0.013557,0.162324,0.000000,0.342265,360.000000,0.706562,0.996031,-0.003223,0.012891,0.656148,10.000000,304.461975,-6795364570.831345,0.162737,0.000000,0.049562,0.000000,1.000000,0.110460,0.950000,0.707103,-0.793481,0.000000,0.021801,-6795364570.721345,0.706573,-1.118076,0.000000,0.086489,-0.784478,2.207768,0.182899,0.088254,448.133545,0.192572,-1.121714,0.000000,0.000000,0.644398,-0.003631,-0.000080,-0.003333,0.000000,0.707107,-6795364570.771345,-0.043050,3.141593,0.000319,0.707649,0.841000,0.173649,0.002317,0.707638,0.001684,0.004517,0.001696,-0.996065,12.750000
0.000307,0.006348,0.000000,0.045944,1.000000,0.173649,1.000000,-6795364570.731345,-0.000175,0.401827,0.841000,0.113212,0.009053,6.200000,0.020713,0.163778,0.000000,0.342265,359.999995,0.706556,0.996068,-0.002032,0.021801,0.638345,10.000000,304.461975,-6795364570.731345,0.163237,0.000000,0.047487,0.000000,1.000000,0.112152,0.841000,0.707104,-0.808741,0.000000,0.021801,-6795364570.671345,0.706567,-1.117629,0.000000,0.087448,-0.784478,2.207768,0.136682,0.089233,448.133545,0.165103,-1.121714,0.000000,0.000000,0.644398,-0.003420,-0.000080,-0.002666,0.000000,0.707107,-6795364570.721345,-0.054883,3.141593,0.000317,0.707655,0.841000,0.173649,0.001862,0.707644,0.001703,-0.001172,0.001706,-0.996300,12.750000
0.000313,0.006226,0.000000,0.045944,1.000000,0.185296,1.000000,-6795364570.631345,-0.000142,0.419630,0.756000,0.113092,0.009053,6.200000,0.030777,0.164783,0.000000,0.342265,359.999998,0.706545,0.996177,-0.002187,0.021801,0.667592,10.000000,303.805786,-6795364570.731345,0.164067,0.000000,0.048341,0.000000,1.000000,0.112297,0.841000,0.707105,-0.820185,0.000000,0.021374,-6795364570.621345,0.706556,-1.118442,0.000000,0.089132,-0.784478,2.164478,0.128983,0.090951,448.133545,0.151987,-1.121714,0.000000,0.000000,0.644398,-0.003304,-0.000072,-0.002547,0.000000,0.707107,-6795364570.671345,-0.070110,3.141593,0.000323,0.707666,0.756000,0.185296,0.001734,0.707655,0.001710,0.018087,0.001710,-0.996899,12.750000
0.000316,0.005737,0.000000,0.045944,1.000000,0.185296,1.000000,-6795364570.631345,0.000091,0.389111,0.756000,0.114569,0.009053,6.200000,0.034847,0.165815,0.000000,0.342265,359.999998,0.706540,0.996190,-0.003349,0.021374,0.618000,10.000000,303.805786,-6795364570.631345,0.165969,0.000000,0.050091,0.000000,1.000000,0.113669,0.756000,0.707104,-0.821457,0.000000,0.021374,-6795364570.571345,0.706551,-1.117425,0.000000,0.090035,-0.784478,2.164478,0.173492,0.091872,448.133545,0.158713,-1.121714,0.000000,0.000000,0.644398,-0.003360,-0.000072,-0.002810,0.000000,0.707107,-6795364570.621345,-0.054761,3.141593,0.000320,0.707671,0.756000,0.185296,0.002050,0.707660,0.001725,-0.011695,0.001731,-0.996487,12.750000
0.000314,0.005554,0.000000,0.045944,1.000000,0.197530,1.000000,-6795364570.531345,0.000064,0.389111,0.797000,0.116262,0.009053,6.200000,0.021829,0.167066,0.000000,0.342265,359.999999,0.706536,0.996279,-0.003155,0.021374,0.629444,10.000000,303.149628,-6795364570.631345,0.167305,0.000000,0.049257,0.000000,1.000000,0.115193,0.756000,0.707104,-0.801111,0.000000,0.019950,-6795364570.521345,0.706547,-1.118320,0.000000,0.090672,-0.784478,2.020345,0.178991,0.092522,448.124908,0.168635,-1.121714,0.000000,0.000000,0.644398,-0.003332,-0.000065,-0.003008,0.000000,0.707107,-6795364570.571345,-0.049714,3.141593,0.000319,0.707675,0.797000,0.197530,0.002145,0.707664,0.001742,-0.012626,0.001750,-0.996899,12.750000
0.000314,0.005697,0.000000,0.045944,1.000000,0.197530,1.000000,-6795364570.531345,0.000113,0.381481,0.797000,0.117677,0.009053,6.200000,0.021529,0.168386,0.000000,0.342265,360.000000,0.706534,0.996382,-0.003357,0.019950,0.638345,10.000000,303.149628,-6795364570.531345,0.168793,0.000000,0.049684,0.000000,1.000000,0.116601,0.797000,0.707103,-0.806197,0.000000,0.019950,-6795364570.471345,0.706545,-1.118564,0.000000,0.090948,-0.784478,2.020345,0.188721,0.092805,448.124908,0.170443,-1.121714,0.000000,0.000000,0.644398,-0.003344,-0.000065,-0.002980,0.000000,0.707107,-6795364570.521345,-0.042638,3.141593,0.000318,0.707677,0.797000,0.197530,0.002216,0.707666,0.001759,-0.006898,0.001768,-0.997186,12.750000
0.000318,0.005860,0.000000,0.045944,1.000000,0.211400,1.000000,-6795364570.431345,0.000094,0.400555,0.891000,0.118261,0.009053,6.200000,0.020445,0.169821,0.000000,0.342265,360.000000,0.706529,0.996369,-0.003105,0.019950,0.656148,10.000000,302.821533,-6795364570.531345,0.170057,0.000000,0.049135,0.000000,1.000000,0.117278,0.797000,0.707104,-0.804926,0.000000,0.023074,-6795364570.421345,0.706540,-1.117405,0.000000,0.091742,-0.784478,2.336653,0.181582,0.093614,448.155151,0.166400,-1.121714,0.000000,0.000000,0.644398,-0.003311,-0.000059,-0.002864,0.000000,0.707107,-6795364570.471345,-0.053338,3.141593,0.000323,0.707682,0.891000,0.211400,0.002147,0.707670,0.001772,0.007818,0.001779,-0.996537,12.750000
0.000327,0.006673,0.000000,0.045944,1.000000,0.211400,1.000000,-6795364570.431345,0.000166,0.406913,0.891000,0.117973,0.009053,6.200000,0.022756,0.171201,0.000000,0.342265,359.999999,0.706522,0.996396,-0.002879,0.023074,0.661234,10.000000,302.821533,-6795364570.431345,0.171184,0.000000,0.048911,0.000000,1.000000,0.117453,0.891000,0.707104,-0.808741,0.000000,0.023074,-6795364570.371345,0.706533,-1.117832,0.000000,0.092887,-0.784478,2.336653,0.170339,0.094783,448.155151,0.143445,-1.121714,0.000000,0.000000,0.644398,-0.003259,-0.000059,-0.002324,0.000000,0.707107,-6795364570.421345,-0.060871,3.141593,0.000330,0.707689,0.891000,0.211400,0.001936,0.707677,0.001781,0.015973,0.001785,-0.996606,12.750000
0.000334,0.005982,0.000000,0.045944,1.000000,0.222032,1.000000,-6795364570.331345,0.000281,0.408185,0.743000,0.118344,0.009053,6.200000,0.023437,0.172363,0.000000,0.342265,359.999999,0.706513,0.996418,-0.003523,0.023074,0.640889,10.000000,302.165344,-6795364570.431345,0.172773,0.000000,0.050050,0.000000,1.000000,0.117752,0.891000,0.707104,-0.808741,0.000000,0.012580,-6795364570.321345,0.706525,-1.117771,0.000000,0.094194,-0.784478,1.273917,0.192864,0.096117,448.068726,0.147391,-1.121714,0.000000,0.000000,0.644398,-0.003314,-0.000053,-0.002593,0.000000,0.707107,-6795364570.371345,-0.064602,3.141593,0.000335,0.707697,0.743000,0.222032,0.002100,0.707686,0.001790,0.004226,0.001797,-0.996615,12.750000
0.000335,0.005331,0.000000,0.045944,1.000000,0.222032,1.000000,-6795364570.331345,-0.000050,0.391654,0.743000,0.119584,0.009053,6.200000,0.030854,0.174322,0.000000,0.342265,0.000002,0.706508,0.996458,-0.002542,0.012580,0.633259,10.000000,302.165344,-6795364570.331345,0.174039,0.000000,0.048179,0.000000,1.000000,0.118591,0.743000,0.707104,-0.818913,0.000000,0.012580,-6795364570.271345,0.706520,-1.118076,0.000000,0.094979,-0.784478,1.273917,0.160136,0.096917,448.068726,0.168189,-1.121714,0.000000,0.000000,0.644398,-0.003195,-0.000053,-0.003081,0.000000,0.707107,-6795364570.321345,-0.054437,3.141593,0.000342,0.707702,0.743000,0.222032,0.002026,0.707690,0.001808,-0.005108,0.001812,-0.996757,12.750000
0.000340,0.004822,0.000000,0.045944,1.000000,0.220171,1.000000,-6795364570.231345,-0.000052,0.404370,0.129000,0.121415,0.009053,6.200000,0.052589,0.176675,0.000000,0.342265,359.999998,0.706502,0.996555,-0.003398,0.012580,0.633259,10.000000,302.493439,-6795364570.331345,0.176836,0.000000,0.050050,0.000000,1.000000,0.119952,0.743000,0.707103,-0.846889,0.000000,0.015973,-6795364570.221345,0.706514,-1.118686,0.000000,0.096041,-0.784478,1.617571,0.184708,0.098002,448.100067,0.193149,-1.121714,0.000000,0.000000,0.644398,-0.003253,-0.000047,-0.003548,0.000000,0.707107,-6795364570.271345,-0.060438,3.141593,0.000348,0.707709,0.129000,0.220171,0.002332,0.707697,0.001831,-0.007544,0.001841,-0.997225,12.750000
0.000348,0.005046,0.000000,0.045944,1.000000,0.220171,1.000000,-6795364570.231345,0.000130,0.404370,0.129000,0.122956,0.009053,6.200000,0.037750,0.178731,0.000000,0.342265,359.999999,0.706495,0.996500,-0.004127,0.015973,0.645975,10.000000,302.493439,-6795364570.231345,0.179588,0.000000,0.050742,0.000000,1.000000,0.121375,0.129000,0.707102,-0.816370,0.000000,0.015973,-6795364570.171345,0.706507,-1.117059,0.000000,0.097143,-0.784478,1.617571,0.221555,0.099126,448.100067,0.200457,-1.121714,0.000000,0.000000,0.644398,-0.003374,-0.000047,-0.003540,0.000000,0.707107,-6795364570.221345,-0.061702,3.141593,0.000352,0.707716,0.129000,0.220171,0.002604,0.707704,0.001852,0.000619,0.001867,-0.996370,12.750000
0.000350,0.006348,0.000000,0.045944,1.000000,0.224228,1.000000,-6795364570.131345,0.000135,0.423444,0.423000,0.124799,0.009053,6.200000,0.038524,0.181523,0.000000,0.342265,359.999996,0.706483,0.996567,-0.003120,0.015973,0.614185,10.000000,302.493439,-6795364570.231345,0.181732,0.000000,0.048830,0.000000,1.000000,0.123875,0.129000,0.707103,-0.824000,0.000000,0.015660,-6795364570.121345,0.706496,-1.118442,0.000000,0.098946,-0.784478,1.585854,0.191966,0.100965,448.100067,0.170083,-1.121714,0.000000,0.000000,0.644398,-0.003306,-0.000043,-0.002733,0.000000,0.707107,-6795364570.171345,-0.076375,3.141593,0.000354,0.707727,0.423000,0.224228,0.002234,0.707715,0.001885,-0.018620,0.001892,-0.996933,12.750000
0.000350,0.005249,0.000000,0.045944,1.000000,0.224228,1.000000,-6795364570.131345,0.000161,0.394197,0.423000,0.126181,0.009053,6.200000,0.019346,0.182706,0.000000,0.342265,359.999998,0.706478,0.996313,-0.003644,0.015660,0.640889,10.000000,302.493439,-6795364570.131345,0.183143,0.000000,0.050010,0.000000,1.000000,0.125117,0.423000,0.707103,-0.796024,0.000000,0.015660,-6795364570.071345,0.706490,-1.114861,0.000000,0.099878,-0.784478,1.585854,0.204476,0.101916,448.100067,0.178328,-1.121714,0.000000,0.000000,0.644398,-0.003365,-0.000043,-0.003158,0.000000,0.707107,-6795364570.121345,-0.059399,3.141593,0.000354,0.707733,0.423000,0.224228,0.002362,0.707720,0.001900,-0.006553,0.001909,-0.994896,12.750000
0.000342,0.005127,0.000000,0.045944,1.000000,0.234443,1.000000,-6795364570.031345,0.000068,0.396741,0.735000,0.129017,0.009053,6.200000,0.025139,0.184406,0.000000,0.342265,360.000000,0.706472,0.996433,-0.003459,0.015660,0.598926,10.000000,302.821533,-6795364570.131345,0.184730,0.000000,0.049623,0.000000,1.000000,0.127782,0.423000,0.707103,-0.812555,0.000000,0.019872,-6795364570.021345,0.706485,-1.118809,0.000000,0.100697,-0.784478,2.012372,0.200542,0.102752,448.138947,0.189554,-1.121714,0.000000,0.000000,0.644398,-0.003367,-0.000038,-0.003381,0.000000,0.707107,-6795364570.071345,-0.057381,3.141593,0.000348,0.707738,0.735000,0.234443,0.002407,0.707725,0.001927,-0.032210,0.001936,-0.996733,12.750000
0.000339,0.004435,0.000000,0.045944,1.000000,0.234443,1.000000,-6795364570.031345,-0.000103,0.414543,0.735000,0.130563,0.009053,6.200000,0.017000,0.185587,0.000000,0.342265,0.000000,0.706464,0.996418,-0.003376,0.019872,0.658691,10.000000,302.821533,-6795364570.031345,0.185798,0.000000,0.049521,0.000000,1.000000,0.128886,0.735000,0.707102,-0.798568,0.000000,0.019872,-6795364569.971345,0.706477,-1.117425,0.000000,0.101987,-0.784478,2.012372,0.196051,0.104068,448.138947,0.212741,-1.121714,0.000000,0.000000,0.644398,-0.003366,-0.000038,-0.003873,0.000000,0.707107,-6795364570.021345,-0.067435,3.141593,0.000348,0.707746,0.735000,0.234443,0.002523,0.707733,0.001941,0.002404,0.001952,-0.996416,12.750000
0.000341,0.005921,0.000000,0.045944,1.000000,0.252534,1.000000,-6795364569.931345,0.000099,0.370037,1.139000,0.131496,0.009053,6.200000,0.019257,0.186765,0.000000,0.342265,0.000001,0.706465,0.996367,-0.003616,0.019872,0.648518,10.000000,302.821533,-6795364570.031345,0.187119,0.000000,0.049928,0.000000,1.000000,0.130337,0.735000,0.707103,-0.804926,0.000000,0.028520,-6795364569.921345,0.706478,-1.116977,0.000000,0.101889,-0.784478,2.888144,0.204412,0.103969,448.216736,0.188315,-1.121714,0.000000,0.000000,0.644398,-0.003402,-0.000035,-0.003092,0.000000,0.707107,-6795364569.971345,-0.039651,3.141593,0.000346,0.707745,1.139000,0.252534,0.002423,0.707732,0.001957,0.004398,0.001966,-0.996060,12.750000
0.000333,0.004802,0.000000,0.045944,1.000000,0.252534,1.000000,-6795364569.931345,-0.000041,0.394197,1.139000,0.133619,0.009053,6.200000,0.013560,0.187803,0.000000,0.342265,0.000001,0.706463,0.996354,-0.003272,0.028520,0.618000,10.000000,302.821533,-6795364569.931345,0.187909,0.000000,0.049277,0.000000,1.000000,0.132271,1.139000,0.707103,-0.796024,0.000000,0.028520,-6795364569.871345,0.706475,-1.117384,0.000000,0.102257,-0.784478,2.888144,0.193053,0.104344,448.216736,0.199707,-1.121714,0.000000,0.000000,0.644398,-0.003376,-0.000035,-0.003557,0.000000,0.707107,-6795364569.921345,-0.049038,3.141593,0.000341,0.707748,1.139000,0.252534,0.002424,0.707735,0.001975,-0.015656,0.001984,-0.996185,12.750000
0.000326,0.006104,0.000000,0.045944,1.000000,0.277043,1.000000,-6795364569.821345,0.000258,0.427259,1.478000,0.135208,0.009053,6.200000,-0.003465,0.187745,0.000000,0.342265,0.000002,0.706452,0.996290,-0.003971,0.028520,0.625629,10.000000,303.149628,-6795364569.931345,0.188348,0.000000,0.050539,0.000000,1.000000,0.134377,1.139000,0.707103,-0.774407,0.000000,0.023693,-6795364569.821345,0.706465,-1.116733,0.000000,0.103871,-0.784478,2.399321,0.217850,0.105991,448.180023,0.175977,-1.121714,0.000000,0.000000,0.644398,-0.003467,-0.000031,-0.002882,0.000000,0.707107,-6795364569.871345,-0.074636,3.141593,0.000327,0.707758,1.478000,0.277043,0.002430,0.707745,0.001988,-0.015389,0.001997,-0.995855,12.750000
0.000319,0.005168,0.000000,0.045944,1.000000,0.277043,1.000000,-6795364569.821345,0.000290,0.417086,1.478000,0.137376,0.009053,6.200000,0.004833,0.188598,0.000000,0.342265,0.000000,0.706442,0.996271,-0.004119,0.023693,0.612913,10.000000,303.149628,-6795364569.821345,0.189451,0.000000,0.050457,0.000000,1.000000,0.136420,1.478000,0.707102,-0.793481,0.000000,0.023693,-6795364569.771345,0.706455,-1.117181,0.000000,0.105505,-0.784478,2.399321,0.231207,0.107659,448.180023,0.184267,-1.121714,0.000000,0.000000,0.644398,-0.003540,-0.000031,-0.003265,0.000000,0.707107,-6795364569.821345,-0.075673,3.141593,0.000320,0.707768,1.478000,0.277043,0.002564,0.707755,0.002006,-0.024494,0.002017,-0.996028,12.750000
0.000325,0.005860,0.000000,0.045944,1.000000,0.305643,1.000000,-6795364569.731345,0.000173,0.419630,1.707000,0.138083,0.009053,6.200000,0.026009,0.190761,0.000000,0.342265,359.999999,0.706432,0.996493,-0.003308,0.023693,0.652333,10.000000,303.477692,-6795364569.821345,0.190993,0.000000,0.049196,0.000000,1.000000,0.137343,1.478000,0.707103,-0.820185,0.000000,0.026743,-6795364569.721345,0.706445,-1.119907,0.000000,0.107157,-0.784478,2.708199,0.202323,0.109344,448.210266,0.174351,-1.121714,0.000000,0.000000,0.644398,-0.003483,-0.000028,-0.002962,0.000000,0.707107,-6795364569.771345,-0.076784,3.141593,0.000328,0.707778,1.707000,0.305643,0.002324,0.707765,0.002025,0.000418,0.002031,-0.997750,12.750000
0.000330,0.006226,0.000000,0.045944,1.000000,0.305643,1.000000,-6795364569.731345,0.000137,0.404370,1.707000,0.138329,0.009053,6.200000,0.027996,0.192401,0.000000,0.342265,359.999998,0.706425,0.996554,-0.002977,0.026743,0.645975,10.000000,303.477692,-6795364569.731345,0.192161,0.000000,0.048992,0.000000,1.000000,0.137921,1.707000,0.707104,-0.813827,0.000000,0.026743,-6795364569.671345,0.706438,-1.118361,0.000000,0.108277,-0.784478,2.708199,0.180422,0.110486,448.210266,0.158280,-1.121714,0.000000,0.000000,0.644398,-0.003419,-0.000028,-0.002635,0.000000,0.707107,-6795364569.721345,-0.066591,3.141593,0.000334,0.707785,1.707000,0.305643,0.002090,0.707772,0.002039,0.003007,0.002040,-0.997300,12.750000
0.000336,0.005290,0.000000,0.045944,1.000000,0.328830,1.000000,-6795364569.631345,0.000215,0.396741,1.465000,0.139613,0.009053,6.200000,0.037531,0.194045,0.000000,0.342265,359.999998,0.706420,0.996302,-0.003804,0.026743,0.623086,10.000000,304.133850,-6795364569.731345,0.194314,0.000000,0.050335,0.000000,1.000000,0.138941,1.707000,0.707103,-0.826543,0.000000,0.026218,-6795364569.621345,0.706434,-1.114861,0.000000,0.109000,-0.784478,2.655097,0.207447,0.111225,448.210266,0.172569,-1.121714,0.000000,0.000000,0.644398,-0.003495,-0.000025,-0.003103,0.000000,0.707107,-6795364569.671345,-0.058925,3.141593,0.000338,0.707790,1.465000,0.328830,0.002345,0.707776,0.002055,-0.012443,0.002061,-0.995014,12.750000
0.000328,0.005331,0.000000,0.045944,1.000000,0.328830,1.000000,-6795364569.631345,-0.000124,0.386568,1.465000,0.141691,0.009053,6.200000,0.038664,0.195865,0.000000,0.342265,0.000001,0.706421,0.996280,-0.002469,0.026218,0.602741,10.000000,304.133850,-6795364569.631345,0.195183,0.000000,0.047894,0.000000,1.000000,0.140870,1.465000,0.707104,-0.824000,0.000000,0.026218,-6795364569.581345,0.706435,-1.117262,0.000000,0.108788,-0.784478,2.655097,0.161699,0.111008,448.210266,0.181863,-1.121714,0.000000,0.000000,0.644398,-0.003336,-0.000025,-0.003230,0.000000,0.707107,-6795364569.621345,-0.050079,3.141593,0.000337,0.707788,1.465000,0.328830,0.002120,0.707775,0.002078,-0.031600,0.002079,-0.995762,12.750000
0.000318,0.006348,0.000000,0.045944,1.000000,0.340393,1.000000,-6795364569.531345,-0.000128,0.396741,0.907000,0.144239,0.009053,6.200000,0.033606,0.197207,0.000000,0.342265,359.999999,0.706415,0.996270,-0.002270,0.026218,0.602741,10.000000,304.133850,-6795364569.631345,0.196062,0.000000,0.048219,0.000000,1.000000,0.143903,1.465000,0.707104,-0.816370,0.000000,0.029219,-6795364569.521345,0.706429,-1.117344,0.000000,0.109824,-0.784478,2.958959,0.139910,0.112065,448.240509,0.160623,-1.121714,0.000000,0.000000,0.644398,-0.003222,-0.000023,-0.002634,0.000000,0.707107,-6795364569.581345,-0.054497,3.141593,0.000327,0.707795,0.907000,0.340393,0.001854,0.707781,0.002105,-0.037055,0.002100,-0.996051,12.750000
0.000310,0.006307,0.000000,0.045944,1.000000,0.340393,1.000000,-6795364569.531345,-0.000090,0.412000,0.907000,0.145137,0.009053,6.200000,0.019548,0.197047,0.000000,0.342265,359.999999,0.706408,0.996373,-0.002279,0.029219,0.633259,10.000000,304.133850,-6795364569.531345,0.195780,0.000000,0.048382,0.000000,1.000000,0.145073,0.907000,0.707105,-0.798568,0.000000,0.029219,-6795364569.471345,0.706422,-1.118605,0.000000,0.110841,-0.784478,2.958959,0.133669,0.113103,448.240509,0.148244,-1.121714,0.000000,0.000000,0.644398,-0.003129,-0.000023,-0.002487,0.000000,0.707107,-6795364569.521345,-0.065520,3.141593,0.000319,0.707801,0.907000,0.340393,0.001740,0.707787,0.002111,-0.016910,0.002104,-0.996927,12.750000
0.000313,0.006714,0.000000,0.045944,1.000000,0.349205,1.000000,-6795364569.431345,0.000191,0.434889,0.781000,0.145629,0.009053,6.200000,0.033002,0.197441,0.000000,0.342265,0.000002,0.706396,0.996326,-0.003059,0.029219,0.625629,10.000000,304.133850,-6795364569.531345,0.196757,0.000000,0.049562,0.000000,1.000000,0.145900,0.907000,0.707104,-0.824000,0.000000,0.038939,-6795364569.421345,0.706410,-1.116977,0.000000,0.112801,-0.784478,3.943288,0.163245,0.115103,448.329132,0.132294,-1.121714,0.000000,0.000000,0.644398,-0.003156,-0.000020,-0.002181,0.000000,0.707107,-6795364569.471345,-0.085197,3.141593,0.000316,0.707814,0.781000,0.349205,0.001824,0.707799,0.002119,-0.015547,0.002113,-0.996208,12.750000
0.000318,0.004639,0.000000,0.045944,1.000000,0.349205,1.000000,-6795364569.431345,0.000345,0.396741,0.781000,0.146412,0.009053,6.200000,0.015895,0.197559,0.000000,0.342265,359.999989,0.706391,0.996412,-0.004550,0.038939,0.643432,10.000000,304.133850,-6795364569.431345,0.198249,0.000000,0.051637,0.000000,1.000000,0.145807,0.781000,0.707102,-0.793481,0.000000,0.038939,-6795364569.371345,0.706405,-1.118361,0.000000,0.113669,-0.784478,3.943288,0.232033,0.115989,448.329132,0.176109,-1.121714,0.000000,0.000000,0.644398,-0.003361,-0.000020,-0.003391,0.000000,0.707107,-6795364569.421345,-0.063737,3.141593,0.000317,0.707819,0.781000,0.349205,0.002519,0.707805,0.002119,-0.003779,0.002127,-0.996897,12.750000
0.000321,0.005066,0.000000,0.045944,1.000000,0.356221,1.000000,-6795364569.331345,0.000296,0.431074,0.700000,0.147903,0.009053,6.200000,0.023917,0.199456,0.000000,0.342265,359.999996,0.706380,0.996417,-0.004257,0.038939,0.625629,10.000000,304.133850,-6795364569.431345,0.200286,0.000000,0.050417,0.000000,1.000000,0.146984,0.781000,0.707102,-0.812555,0.000000,0.041564,-6795364569.321345,0.706394,-1.117588,0.000000,0.115411,-0.784478,4.209181,0.240919,0.117767,448.358307,0.193011,-1.121714,0.000000,0.000000,0.644398,-0.003440,-0.000018,-0.003483,0.000000,0.707107,-6795364569.371345,-0.081929,3.141593,0.000322,0.707830,0.700000,0.356221,0.002678,0.707815,0.002138,-0.011717,0.002149,-0.996593,12.750000
0.000322,0.006348,0.000000,0.045944,1.000000,0.356221,1.000000,-6795364569.331345,0.000340,0.381481,0.700000,0.149126,0.009053,6.200000,0.020371,0.201311,0.000000,0.342265,359.999997,0.706378,0.996464,-0.003725,0.041564,0.623086,10.000000,304.133850,-6795364569.331345,0.201729,0.000000,0.049725,0.000000,1.000000,0.148759,0.700000,0.707103,-0.803654,0.000000,0.041564,-6795364569.271345,0.706392,-1.118076,0.000000,0.115689,-0.784478,4.209181,0.222169,0.118051,448.358307,0.167107,-1.121714,0.000000,0.000000,0.644398,-0.003447,-0.000018,-0.002714,0.000000,0.707107,-6795364569.321345,-0.052725,3.141593,0.000322,0.707832,0.700000,0.356221,0.002402,0.707817,0.002160,-0.017298,0.002165,-0.996794,12.750000
0.000325,0.006409,0.000000,0.045944,1.000000,0.361237,1.000000,-6795364569.231345,0.000465,0.423444,0.607000,0.149835,0.009053,6.200000,0.017291,0.202428,0.000000,0.342265,359.999999,0.706374,0.996546,-0.003910,0.041564,0.621815,10.000000,304.133850,-6795364569.331345,0.202858,0.000000,0.050295,0.000000,1.000000,0.149862,0.700000,0.707103,-0.801111,0.000000,0.041564,-6795364569.231345,0.706389,-1.118503,0.000000,0.116253,-0.784478,4.209181,0.223917,0.118625,448.358307,0.148577,-1.121714,0.000000,0.000000,0.644398,-0.003502,-0.000017,-0.002448,0.000000,0.707107,-6795364569.271345,-0.073334,3.141593,0.000322,0.707835,0.607000,0.361237,0.002299,0.707820,0.002174,-0.018659,0.002177,-0.997136,12.750000
0.000324,0.005615,0.000000,0.045944,1.000000,0.364752,1.000000,-6795364569.151345,0.000305,0.389111,0.537000,0.151262,0.009053,6.200000,0.021899,0.203960,0.000000,0.342265,0.000000,0.706372,0.996453,-0.003518,0.041564,0.614185,10.000000,304.461975,-6795364569.231345,0.204058,0.000000,0.049501,0.000000,1.000000,0.151095,0.607000,0.707103,-0.808741,0.000000,0.039996,-6795364569.181345,0.706386,-1.116672,0.000000,0.116665,-0.784478,4.050379,0.208816,0.119046,448.351807,0.159447,-1.121714,0.000000,0.000000,0.644398,-0.003488,-0.000015,-0.002853,0.000000,0.707107,-6795364569.231345,-0.055766,3.141593,0.000324,0.707838,0.537000,0.364752,0.002272,0.707823,0.002191,-0.025387,0.002193,-0.996074,12.750000
0.000327,0.005371,0.000000,0.045944,1.000000,0.364752,1.000000,-6795364569.151345,0.000190,0.412000,0.537000,0.151628,0.009053,6.200000,0.028503,0.204918,0.000000,0.342265,0.000000,0.706374,0.996343,-0.003522,0.039996,0.656148,10.000000,304.461975,-6795364569.151345,0.204910,0.000000,0.049684,0.000000,1.000000,0.151177,0.537000,0.707103,-0.816370,0.000000,0.039212,-6795364569.151345,0.706389,-1.116367,0.000000,0.116252,-0.784478,3.970960,0.204526,0.118625,448.351807,0.173737,-1.121714,0.000000,0.000000,0.644398,-0.003493,-0.000015,-0.003125,0.000000,0.707107,-6795364569.181345,-0.065345,3.141593,0.000329,0.707835,0.537000,0.364752,0.002334,0.707820,0.002198,0.002599,0.002200,-0.995568,12.750000
0.000336,0.006470,0.000000,0.045944,1.000000,0.364752,1.000000,-6795364569.151345,0.000413,0.404370,0.537000,0.151551,0.009053,6.200000,0.030524,0.206138,0.000000,0.342265,0.000001,0.706373,0.996209,-0.003952,0.039212,0.644704,10.000000,304.461975,-6795364569.151345,0.206428,0.000000,0.050356,0.000000,1.000000,0.151508,0.537000,0.707103,-0.816370,0.000000,0.039212,-6795364569.111345,0.706388,-1.115940,0.000000,0.116405,-0.784478,3.970960,0.220643,0.118780,448.351807,0.153680,-1.121714,0.000000,0.000000,0.644398,-0.003560,-0.000015,-0.002520,0.000000,0.707107,-6795364569.151345,-0.063211,3.141593,0.000335,0.707836,0.537000,0.364752,0.002310,0.707821,0.002207,0.002772,0.002209,-0.995173,12.750000
0.000349,0.006958,0.000000,0.045944,1.000000,0.362337,1.000000,-6795364569.061345,0.000558,0.408185,0.244000,0.151056,0.009053,6.200000,0.023097,0.207824,0.000000,0.342265,0.000000,0.706364,0.996190,-0.003786,0.039212,0.640889,10.000000,303.805786,-6795364569.151345,0.208041,0.000000,0.049928,0.000000,1.000000,0.151521,0.537000,0.707104,-0.804926,0.000000,0.038443,-6795364569.051345,0.706379,-1.117100,0.000000,0.117915,-0.784478,3.893098,0.218671,0.120322,448.351807,0.128257,-1.121714,0.000000,0.000000,0.644398,-0.003577,-0.000013,-0.002040,0.000000,0.707107,-6795364569.111345,-0.065283,3.141593,0.000345,0.707845,0.244000,0.362337,0.002141,0.707831,0.002218,0.000265,0.002216,-0.995768,12.750000
0.000359,0.005208,0.000000,0.045944,1.000000,0.362337,1.000000,-6795364569.061345,0.000406,0.406913,0.244000,0.150706,0.009053,6.200000,0.016430,0.208871,0.000000,0.342265,359.999999,0.706359,0.996366,-0.003960,0.038443,0.656148,10.000000,303.805786,-6795364569.061345,0.209190,0.000000,0.050376,0.000000,1.000000,0.150536,0.244000,0.707103,-0.798568,0.000000,0.038443,-6795364569.001345,0.706374,-1.119256,0.000000,0.118718,-0.784478,3.893098,0.224837,0.121141,448.351807,0.159022,-1.121714,0.000000,0.000000,0.644398,-0.003623,-0.000013,-0.002997,0.000000,0.707107,-6795364569.051345,-0.064542,3.141593,0.000358,0.707850,0.244000,0.362337,0.002369,0.707835,0.002218,0.010149,0.002221,-0.997293,12.750000
0.000362,0.005982,0.000000,0.045944,1.000000,0.367510,1.000000,-6795364568.961345,0.000574,0.366222,0.621000,0.151210,0.009053,6.200000,0.003081,0.209349,0.000000,0.342265,360.000000,0.706362,0.996151,-0.004601,0.038443,0.629444,10.000000,303.805786,-6795364569.061345,0.210220,0.000000,0.051149,0.000000,1.000000,0.151036,0.244000,0.707102,-0.782037,0.000000,0.047857,-6795364568.951345,0.706377,-1.115024,0.000000,0.118135,-0.784478,4.846402,0.252896,0.120546,448.439331,0.159814,-1.121714,0.000000,0.000000,0.644398,-0.003751,-0.000012,-0.002782,0.000000,0.707107,-6795364569.001345,-0.036533,3.141593,0.000357,0.707847,0.621000,0.367510,0.002547,0.707832,0.002224,-0.006728,0.002231,-0.995138,12.750000
